학교명,학교급구분,설립일자,설립형태,본교분교구분,소재지도로명주소,시도교육청명,교육지원청명,위도,경도
대안여자중학교,중학교,1986-03-01,공립,본교,경기도 안양시 동안구 흥안대로223번길 46,경기도교육청,경기도안양과천교육지원청,37.3771591,126.9651002
대전하기중학교,중학교,2006-03-01,공립,본교,대전광역시 유성구 송림로48번길 6-30,대전광역시교육청,대전광역시서부교육지원청,36.38588907,127.3222049
목감고등학교,고등학교,2020-03-01,공립,본교,경기도 시흥시 목감둘레로 150,경기도교육청,경기도시흥교육지원청,37.37222339,126.8571834
남천중학교,중학교,1984-12-29,공립,본교,부산광역시 남구 황령대로492번길 71,부산광역시교육청,부산광역시남부교육지원청,35.13660359,129.1052341
정신여자고등학교,고등학교,1987-10-20,사립,본교,서울특별시 송파구 올림픽로4길 16,서울특별시교육청,서울특별시강동송파교육지원청,37.50945384,127.0738473
문화중학교,중학교,1984-03-08,공립,본교,광주광역시 북구 면앙로 111,광주광역시교육청,광주광역시동부교육지원청,35.17846694,126.9239162
부산영상예술고등학교,고등학교,1955-04-25,공립,본교,부산광역시 영도구 영상길 100,부산광역시교육청,부산광역시서부교육지원청,35.08513613,129.0449175
김화공업고등학교,고등학교,1968-12-03,공립,본교,강원도 철원군 서면 와수1로 72,강원도교육청,강원도철원교육지원청,38.24340756,127.4349464
성복고등학교,고등학교,2011-10-02,공립,본교,경기도 용인시 수지구 도마치로 92,경기도교육청,경기도용인교육지원청,37.32336344,127.0611228
부산센텀여자고등학교,고등학교,2004-03-01,사립,본교,부산광역시 해운대구 해운대로469번길 50-1,부산광역시교육청,부산광역시해운대교육지원청,35.16591884,129.1443578
불로중학교,중학교,1990-12-08,공립,본교,대구광역시 동구 방천로5길 8,대구광역시교육청,대구광역시동부교육지원청,35.89830061,128.6344118
오륜중학교,중학교,1989-04-18,공립,본교,서울특별시 송파구 양재대로 1242,서울특별시교육청,서울특별시강동송파교육지원청,37.51632395,127.1389238
대구범일초등학교,초등학교,1992-07-25,공립,본교,대구광역시 수성구 범안로4길 22,대구광역시교육청,대구광역시동부교육지원청,35.81631646,128.6388284
대구복명초등학교,초등학교,1926-04-10,공립,본교,대구광역시 수성구 범안로20길 8,대구광역시교육청,대구광역시동부교육지원청,35.8176268,128.6472131
안중초등학교,초등학교,1938-04-01,공립,본교,충청남도 태안군 안면읍 율포길 31,충청남도교육청,충청남도태안교육지원청,36.47401169,126.3722967
대전중원초등학교,초등학교,1991-04-06,공립,본교,대전광역시 대덕구 중리로64번길 45,대전광역시교육청,대전광역시동부교육지원청,36.3658142,127.4280277
용아초등학교,초등학교,2020-10-10,공립,본교,충청북도 청주시 상당구 중고개로142번길 32-15,충청북도교육청,충청북도청주교육지원청,36.61822602,127.5219428
광주자동화설비공업고등학교,고등학교,1979-03-08,공립,본교,광주광역시 광산구 사암로92번길 136-26,광주광역시교육청,광주광역시서부교육지원청,35.15002094,126.8140921
부산디지털고등학교,고등학교,1953-09-18,사립,본교,부산광역시 중구 망양로 356,부산광역시교육청,부산광역시서부교육지원청,35.10885429,129.0324467
통리초등학교,초등학교,1959-04-06,공립,본교,강원도 태백시 통골2길 9,강원도교육청,강원도태백교육지원청,37.16673527,129.0354652
서울반포초등학교,초등학교,1974-03-20,공립,본교,서울특별시 서초구 신반포로 55-4,서울특별시교육청,서울특별시강남서초교육지원청,37.50248483,126.9917416
용원중학교,중학교,2009-03-01,공립,본교,경상남도 창원시 진해구 용원로77번길 16,경상남도교육청,경상남도창원교육지원청,35.09965504,128.8179932
울산예술고등학교,고등학교,1993-05-01,사립,본교,울산광역시 울주군 웅촌면 웅촌로 621-6,울산광역시교육청,울산광역시강남교육지원청,35.4818641,129.2162738
신용중학교,중학교,2014-05-01,공립,본교,광주광역시 북구 첨단연신로133번길 32,광주광역시교육청,광주광역시동부교육지원청,35.2107845,126.8609609
강원체육중학교,중학교,2005-03-01,공립,본교,강원도 춘천시 자라우새길 126,강원도교육청,강원도춘천교육지원청,37.85912229,127.694804
봉래중학교,중학교,1982-03-05,공립,본교,강원도 영월군 영월읍 중리1길 172-17,강원도교육청,강원도영월교육지원청,37.18162818,128.4858655
학하초등학교,초등학교,1963-04-20,공립,본교,대전광역시 유성구 진잠옛로 165,대전광역시교육청,대전광역시서부교육지원청,36.33454132,127.3118276
유촌초등학교,초등학교,1998-03-01,공립,본교,광주광역시 서구 내방로 153,광주광역시교육청,광주광역시서부교육지원청,35.15914004,126.8579563
부민초등학교,초등학교,1921-10-15,공립,본교,부산광역시 서구 고운들로 12,부산광역시교육청,부산광역시서부교육지원청,35.10597008,129.0199211
동촌중학교,중학교,1979-01-31,공립,본교,대구광역시 동구 동촌로 176,대구광역시교육청,대구광역시동부교육지원청,35.88241653,128.6596318
북삼초등학교,초등학교,1946-02-07,공립,본교,강원도 동해시 지양길 77,강원도교육청,강원도동해교육지원청,37.49565579,129.1009681
가림중학교,중학교,1991-06-05,공립,본교,경기도 광명시 오리로 616,경기도교육청,경기도광명교육지원청,37.45764308,126.8796742
대구여자고등학교,고등학교,1954-05-28,공립,본교,대구광역시 수성구 달구벌대로488길 17,대구광역시교육청,대구광역시동부교육지원청,35.85650935,128.629864
궁내중학교,중학교,1994-02-28,공립,본교,경기도 군포시 수리산로 171,경기도교육청,경기도군포의왕교육지원청,37.36388636,126.9190776
군포신기초등학교,초등학교,2012-09-19,공립,본교,경기도 군포시 삼성로28번길 3,경기도교육청,경기도군포의왕교육지원청,37.33864487,126.9327812
아산테크노중학교,중학교,2017-05-30,공립,본교,충청남도 아산시 둔포면 아산밸리북로 32,충청남도교육청,충청남도아산교육지원청,36.92648648,127.0518272
인천만수고등학교,고등학교,2009-05-04,공립,본교,인천광역시 남동구 장승로 91,인천광역시교육청,인천광역시동부교육지원청,37.44709898,126.7422697
서울면동초등학교,초등학교,1978-09-01,공립,본교,서울특별시 중랑구 면목로57길 32,서울특별시교육청,서울특별시동부교육지원청,37.58535152,127.0865922
병곡초등학교,초등학교,1932-09-30,공립,본교,경상남도 함양군 병곡면 휴촌길 21,경상남도교육청,경상남도함양교육지원청,35.52900882,127.6902503
별빛중학교,중학교,2016-03-01,공립,본교,경상북도 영천시 고경면 월천길 1-27,경상북도교육청,경상북도영천교육지원청,36.00232912,129.0432455
인천한빛초등학교,초등학교,2012-05-01,공립,본교,인천광역시 남동구 서창남순환로 190-28,인천광역시교육청,인천광역시동부교육지원청,37.42419512,126.7441353
시흥은행초등학교,초등학교,1995-09-01,공립,본교,경기도 시흥시 대은로104번길 29-10,경기도교육청,경기도시흥교육지원청,37.44258628,126.8007227
청해초등학교,초등학교,1941-07-09,공립,본교,전라남도 완도군 완도읍 청해진로 1374,전라남도교육청,전라남도완도교육지원청,34.35941617,126.7278075
조치원교동초등학교,초등학교,1945-10-05,공립,본교,세종특별자치시 조치원읍 새내18길 21,세종특별자치시교육청,세종특별자치시교육청,36.60522794,127.2979422
시흥장현초등학교,초등학교,2003-03-01,공립,본교,경기도 시흥시 시청로80번길 5,경기도교육청,경기도시흥교육지원청,37.38175778,126.7991022
안강초등학교,초등학교,1946-04-15,공립,본교,경상북도 경주시 안강읍 비화원로 34,경상북도교육청,경상북도경주교육지원청,35.99112905,129.2291697
반안초등학교,초등학교,2002-03-01,공립,본교,부산광역시 해운대구 명장로67번길 40-42,부산광역시교육청,부산광역시해운대교육지원청,35.20293351,129.1132302
대구봉무초등학교,초등학교,2013-03-01,공립,본교,대구광역시 동구 팔공로53길 30,대구광역시교육청,대구광역시동부교육지원청,35.92580017,128.6374377
성신고등학교,고등학교,1987-10-16,사립,본교,울산광역시 중구 성신고교길 26,울산광역시교육청,울산광역시강북교육지원청,35.56270656,129.3278415
대구공업고등학교,고등학교,1925-04-01,공립,본교,대구광역시 동구 대현로 135,대구광역시교육청,대구광역시동부교육지원청,35.88321267,128.6141702
대구동촌초등학교,초등학교,1945-11-23,공립,본교,대구광역시 동구 동촌로 168,대구광역시교육청,대구광역시동부교육지원청,35.88202794,128.6589293
대구효동초등학교,초등학교,1990-05-17,공립,본교,대구광역시 동구 효동로 78-7,대구광역시교육청,대구광역시동부교육지원청,35.88412627,128.6447693
제석초등학교,초등학교,2015-05-01,공립,본교,경상남도 통영시 광도면 신죽1길 27,경상남도교육청,경상남도통영교육지원청,34.87573861,128.4165397
송운중학교,중학교,1996-03-01,공립,본교,경기도 시흥시 옥구천동로 433-11,경기도교육청,경기도시흥교육지원청,37.35941067,126.731408
운산초등학교,초등학교,1989-01-20,공립,본교,부산광역시 남구 용호로269번길 89,부산광역시교육청,부산광역시남부교육지원청,35.11020374,129.1152252
경남고등학교,고등학교,1942-04-30,공립,본교,부산광역시 서구 망양로111번길 65,부산광역시교육청,부산광역시서부교육지원청,35.1201981,129.0200404
용호초등학교,초등학교,1964-09-22,공립,본교,부산광역시 남구 용호로42번길 94,부산광역시교육청,부산광역시남부교육지원청,35.1224793,129.108986
동인고등학교,고등학교,1974-01-05,사립,본교,부산광역시 동래구 쇠미로31번길 34,부산광역시교육청,부산광역시동래교육지원청,35.19852193,129.0509969
왕산중학교,중학교,1970-06-09,공립,본교,강원도 강릉시 왕산면 백두대간로 2005,강원도교육청,강원도강릉교육지원청,37.67297147,128.8367696
서울원촌초등학교,초등학교,1979-09-18,공립,본교,서울특별시 서초구 사평대로45길 26,서울특별시교육청,서울특별시강남서초교육지원청,37.50618948,127.0125656
대구태암초등학교,초등학교,1998-11-05,공립,본교,대구광역시 북구 칠곡중앙대로52길 56,대구광역시교육청,대구광역시서부교육지원청,35.92308728,128.5505021
청양중학교,중학교,1931-08-17,공립,본교,충청남도 청양군 청양읍 칠갑산로 179,충청남도교육청,충청남도청양교육지원청,36.45232466,126.79556
신탄진용정초등학교,초등학교,1979-03-01,공립,본교,대전광역시 대덕구 대청로 65,대전광역시교육청,대전광역시동부교육지원청,36.45422272,127.4360305
대구서촌초등학교,초등학교,1942-05-04,공립,본교,대구광역시 동구 파계로 525-11,대구광역시교육청,대구광역시동부교육지원청,35.98040487,128.6317462
복현중학교,중학교,1985-05-20,공립,본교,대구광역시 북구 동북로65길 28,대구광역시교육청,대구광역시서부교육지원청,35.89394102,128.6279506
인천성리초등학교,초등학교,1999-03-01,공립,본교,인천광역시 남동구 성리로 32-2,인천광역시교육청,인천광역시동부교육지원청,37.4457368,126.7099273
중앙중학교,중학교,1908-06-20,사립,본교,서울특별시 종로구 창덕궁길 164,서울특별시교육청,서울특별시중부교육지원청,37.58378822,126.9874726
금천중학교,중학교,1951-11-29,공립,본교,경상북도 청도군 금천면 선암로 574-11,경상북도교육청,경상북도청도교육지원청,35.68807595,128.8947636
성동중학교,중학교,1972-06-03,공립,본교,부산광역시 남구 남동천로 38,부산광역시교육청,부산광역시남부교육지원청,35.13993339,129.0662635
대성중학교,중학교,1951-09-01,사립,본교,충청북도 청주시 흥덕구 사운로 342,충청북도교육청,충청북도청주교육지원청,36.6580328,127.4691294
가재울고등학교,고등학교,2013-05-01,공립,본교,서울특별시 서대문구 수색로 100-35,서울특별시교육청,서울특별시서부교육지원청,37.57444587,126.9094148
모아초등학교,초등학교,1949-12-01,공립,본교,경상북도 경주시 천북면 산업로 4974-5,경상북도교육청,경상북도경주교육지원청,35.9206086,129.2466225
봉은중학교,중학교,1986-04-29,공립,본교,서울특별시 강남구 영동대로128길 59,서울특별시교육청,서울특별시강남서초교육지원청,37.51897667,127.0623894
대전대화초등학교,초등학교,1982-10-18,공립,본교,대전광역시 대덕구 대화로 242-36,대전광역시교육청,대전광역시동부교육지원청,36.36269221,127.4113441
도담고등학교,고등학교,2013-03-01,공립,본교,세종특별자치시 보듬4로 41,세종특별자치시교육청,세종특별자치시교육청,36.51420716,127.2634446
가수원초등학교,초등학교,1946-10-26,공립,본교,대전광역시 서구 벌곡로 1359,대전광역시교육청,대전광역시서부교육지원청,36.30239371,127.3530021
서울중화초등학교,초등학교,1946-11-07,공립,본교,서울특별시 중랑구 신내로7가길 22,서울특별시교육청,서울특별시동부교육지원청,37.60292163,127.094065
금호중앙중학교,중학교,1960-04-15,사립,본교,광주광역시 북구 금호로 100,광주광역시교육청,광주광역시동부교육지원청,35.1785969,126.8855126
월산중학교,중학교,2001-11-05,공립,본교,경상남도 김해시 월산로 104,경상남도교육청,경상남도김해교육지원청,35.20526183,128.8039417
대전하기초등학교,초등학교,2005-03-01,공립,본교,대전광역시 유성구 송림로19번길 32,대전광역시교육청,대전광역시서부교육지원청,36.38863145,127.321529
서울상월초등학교,초등학교,1990-05-29,공립,본교,서울특별시 노원구 동일로221길 27,서울특별시교육청,서울특별시북부교육지원청,37.65865224,127.05698
선유중학교,중학교,1985-05-04,공립,본교,서울특별시 영등포구 선유로 213,서울특별시교육청,서울특별시남부교육지원청,37.53328647,126.8943293
서울중목초등학교,초등학교,1997-11-04,공립,본교,서울특별시 중랑구 동일로 665,서울특별시교육청,서울특별시동부교육지원청,37.59008735,127.0793361
독산고등학교,고등학교,2002-05-04,공립,본교,서울특별시 금천구 문성로 64,서울특별시교육청,서울특별시남부교육지원청,37.47621872,126.9109732
연봉초등학교,초등학교,1946-08-20,공립,본교,세종특별자치시 연서면 당산로 357-1,세종특별자치시교육청,세종특별자치시교육청,36.56445274,127.2820714
연남초등학교,초등학교,1908-04-01,공립,본교,세종특별자치시 연기면 연기길 2,세종특별자치시교육청,세종특별자치시교육청,36.54388083,127.277847
수왕초등학교,초등학교,1970-04-07,공립,본교,세종특별자치시 연기면 눌왕길 8-45,세종특별자치시교육청,세종특별자치시교육청,36.54347359,127.2522374
산이중학교,중학교,1966-12-13,공립,본교,전라남도 해남군 산이면 비석길 98-2,전라남도교육청,전라남도해남교육지원청,34.6457944,126.4478198
광남중학교,중학교,1982-10-02,공립,본교,경기도 광명시 광명로 785,경기도교육청,경기도광명교육지원청,37.47007475,126.8475588
김해임호고등학교,고등학교,2012-04-13,공립,본교,경상남도 김해시 분성로3번길 77,경상남도교육청,경상남도김해교육지원청,35.23826864,128.8527201
상장중학교,중학교,1984-05-15,공립,본교,강원도 태백시 태백로 1221,강원도교육청,강원도태백교육지원청,37.15068611,128.9921217
맹방초등학교,초등학교,1946-12-12,공립,본교,강원도 삼척시 근덕면 삼척로 3884-4,강원도교육청,강원도삼척교육지원청,37.39852676,129.2127768
미로중학교,중학교,1971-04-21,공립,본교,강원도 삼척시 미로면 강원남부로 3907,강원도교육청,강원도삼척교육지원청,37.41041541,129.1038915
서울신구초등학교,초등학교,1981-11-03,공립,본교,서울특별시 강남구 압구정로18길 28,서울특별시교육청,서울특별시강남서초교육지원청,37.52336057,127.0239924
거창초등학교,초등학교,1907-06-01,공립,본교,경상남도 거창군 거창읍 아림로 48,경상남도교육청,경상남도거창교육지원청,35.6875316,127.9100892
동래여자중학교,중학교,1895-10-15,사립,본교,부산광역시 금정구 체육공원로 20,부산광역시교육청,부산광역시동래교육지원청,35.24704234,129.0981972
유안초등학교,초등학교,1991-04-06,공립,본교,광주광역시 남구 봉선로175번길 16,광주광역시교육청,광주광역시서부교육지원청,35.1254854,126.9146862
서울봉화초등학교,초등학교,1996-09-19,공립,본교,서울특별시 중랑구 신내로15길 110,서울특별시교육청,서울특별시동부교육지원청,37.61357623,127.0924085
영신초등학교,초등학교,1965-03-10,사립,본교,대구광역시 동구 팔공로50길 32,대구광역시교육청,대구광역시동부교육지원청,35.92000422,128.646424
서령초등학교,초등학교,1948-09-01,공립,본교,충청남도 서산시 남부순환로 749,충청남도교육청,충청남도서산교육지원청,36.74421665,126.4470036
동아중학교,중학교,1945-11-01,사립,본교,부산광역시 수영구 호암로 55,부산광역시교육청,부산광역시해운대교육지원청,35.15678092,129.106984
단국대학교부속소프트웨어고등학교,고등학교,1950-11-03,사립,본교,서울특별시 강남구 도곡로64길 21,서울특별시교육청,서울특별시강남서초교육지원청,37.49562483,127.0577682
남서울중학교,중학교,1964-11-12,공립,본교,서울특별시 관악구 남부순환로172길 97,서울특별시교육청,서울특별시동작관악교육지원청,37.48213625,126.9210371
부일외국어고등학교,고등학교,1994-09-16,사립,본교,부산광역시 사하구 감천로73번길 36,부산광역시교육청,부산광역시서부교육지원청,35.09073609,129.0025604
율하중학교,중학교,2010-03-01,공립,본교,경상남도 김해시 율하1로 39,경상남도교육청,경상남도김해교육지원청,35.17508098,128.808001
삼성여자고등학교,고등학교,1954-03-05,사립,본교,부산광역시 사하구 감천로43번길 45,부산광역시교육청,부산광역시서부교육지원청,35.09422497,128.9982328
좌삼초등학교,초등학교,1946-09-20,공립,본교,경상남도 양산시 상북면 수서로 275-16,경상남도교육청,경상남도양산교육지원청,35.44102579,129.0434678
영산중학교,중학교,1951-06-25,공립,본교,경상남도 창녕군 영산면 영산계성로 87,경상남도교육청,경상남도창녕교육지원청,35.4601691,128.5242737
유어초등학교,초등학교,1926-10-01,공립,본교,경상남도 창녕군 유어면 마수원길 39,경상남도교육청,경상남도창녕교육지원청,35.50944637,128.4110124
서울동작초등학교,초등학교,1983-04-06,공립,본교,서울특별시 동작구 동작대로29길 214,서울특별시교육청,서울특별시동작관악교육지원청,37.49410161,126.9765088
서울문영여자고등학교,고등학교,1991-11-07,사립,본교,서울특별시 관악구 관악로 85,서울특별시교육청,서울특별시동작관악교육지원청,37.47290457,126.9509181
서울갈산초등학교,초등학교,1987-11-26,공립,본교,서울특별시 양천구 목동로 31,서울특별시교육청,서울특별시강서양천교육지원청,37.51237156,126.8702299
서울태랑초등학교,초등학교,2001-10-21,공립,본교,서울특별시 노원구 화랑로51나길 31,서울특별시교육청,서울특별시북부교육지원청,37.62625056,127.0906031
서울한천초등학교,초등학교,1984-05-07,공립,본교,서울특별시 노원구 마들로 45,서울특별시교육청,서울특별시북부교육지원청,37.62070936,127.0692435
괴정초등학교,초등학교,1970-03-01,공립,본교,부산광역시 사하구 낙동대로 152,부산광역시교육청,부산광역시서부교육지원청,35.10376396,128.9997579
대전관저초등학교,초등학교,1997-10-02,공립,본교,대전광역시 서구 관저동로 161,대전광역시교육청,대전광역시서부교육지원청,36.30655924,127.3399115
대구국우초등학교,초등학교,2022-03-01,공립,본교,대구광역시 북구 도남중앙로10길 45,대구광역시교육청,대구광역시서부교육지원청,35.95594145,128.5856286
무안초등학교,초등학교,1921-04-01,공립,본교,경상남도 밀양시 무안면 사명로 531,경상남도교육청,경상남도밀양교육지원청,35.4729283,128.651293
영신고등학교,고등학교,1946-10-17,사립,본교,대구광역시 동구 팔공로50길 32,대구광역시교육청,대구광역시동부교육지원청,35.92000422,128.646424
방산중학교,중학교,1991-05-06,공립,본교,서울특별시 송파구 오금로29길 31,서울특별시교육청,서울특별시강동송파교육지원청,37.50937287,127.1218756
하동중앙중학교,중학교,1961-05-01,공립,본교,경상남도 하동군 하동읍 연화길 77,경상남도교육청,경상남도하동교육지원청,35.07664446,127.7495276
신탄진초등학교,초등학교,1919-05-20,공립,본교,대전광역시 대덕구 석봉로3번길 50,대전광역시교육청,대전광역시동부교육지원청,36.44898499,127.4225035
서울영림초등학교,초등학교,1982-10-04,공립,본교,서울특별시 영등포구 시흥대로173길 14,서울특별시교육청,서울특별시남부교육지원청,37.48734601,126.9025393
서천초등학교,초등학교,1985-03-01,공립,본교,부산광역시 사하구 감천로105번길 10,부산광역시교육청,부산광역시서부교육지원청,35.08874156,129.0038498
대구관천초등학교,초등학교,1993-09-01,공립,본교,대구광역시 북구 구암로22길 17,대구광역시교육청,대구광역시서부교육지원청,35.93053458,128.5520401
산내초등학교,초등학교,1920-06-20,공립,본교,대전광역시 동구 산내로 1292,대전광역시교육청,대전광역시동부교육지원청,36.27979819,127.470066
서울평화초등학교,초등학교,1992-10-21,공립,본교,서울특별시 송파구 송파대로26길 22,서울특별시교육청,서울특별시강동송파교육지원청,37.49156712,127.1228237
대전성남초등학교,초등학교,1952-04-15,공립,본교,대전광역시 동구 성남로32번길 5,대전광역시교육청,대전광역시동부교육지원청,36.34394433,127.4293687
방산고등학교,고등학교,2003-09-30,공립,본교,서울특별시 송파구 오금로27길 18,서울특별시교육청,서울특별시강동송파교육지원청,37.50831315,127.1204696
세륜중학교,중학교,1992-04-22,공립,본교,서울특별시 송파구 양재대로72길 41,서울특별시교육청,서울특별시강동송파교육지원청,37.50893314,127.1312464
진남초등학교,초등학교,2007-11-26,공립,본교,광주광역시 남구 효우로60번길 12,광주광역시교육청,광주광역시서부교육지원청,35.10912722,126.9024721
관동중학교,중학교,2004-03-01,공립,본교,경상남도 김해시 덕정로 77,경상남도교육청,경상남도김해교육지원청,35.17976521,128.7926333
영양여자고등학교,고등학교,1974-01-05,사립,본교,경상북도 영양군 영양읍 영양창수로 141,경상북도교육청,경상북도영양교육지원청,36.66188808,129.1297626
의귀초등학교,초등학교,1959-02-20,공립,본교,제주특별자치도 서귀포시 남원읍 한신로 213,제주특별자치도교육청,제주특별자치도서귀포시교육지원청,33.31111895,126.714628
거제장평중학교,중학교,2013-05-01,공립,본교,경상남도 거제시 장평4로 40,경상남도교육청,경상남도거제교육지원청,34.88608569,128.6064665
연무여자중학교,중학교,1970-04-10,사립,본교,충청남도 논산시 연무읍 동안로887번길 5,충청남도교육청,충청남도논산계룡교육지원청,36.13536466,127.1046328
기장초등학교,초등학교,1911-07-01,공립,본교,부산광역시 기장군 기장읍 읍내로 69,부산광역시교육청,부산광역시해운대교육지원청,35.24577217,129.2127656
성일여자고등학교,고등학교,1986-05-01,사립,본교,부산광역시 사하구 다대로 161,부산광역시교육청,부산광역시서부교육지원청,35.08949951,128.9800626
칠산초등학교,초등학교,1945-05-30,공립,본교,경상남도 김해시 칠산로 413번길 16-2,경상남도교육청,경상남도김해교육지원청,35.21001649,128.8515415
북상초등학교,초등학교,1928-07-01,공립,본교,경상남도 거창군 북상면 송계로 731-18,경상남도교육청,경상남도거창교육지원청,35.78009585,127.8170386
대영고등학교,고등학교,1987-12-15,공립,본교,서울특별시 영등포구 도림로86길 16,서울특별시교육청,서울특별시남부교육지원청,37.50366109,126.9058657
대구아양초등학교,초등학교,1958-04-07,공립,본교,대구광역시 동구 아양로 221,대구광역시교육청,대구광역시동부교육지원청,35.88746268,128.6374338
가수원중학교,중학교,1988-03-05,공립,본교,대전광역시 서구 가수원로 26,대전광역시교육청,대전광역시서부교육지원청,36.29847211,127.354558
동원중학교,중학교,1984-12-18,공립,본교,대구광역시 수성구 효행로2길 81,대구광역시교육청,대구광역시동부교육지원청,35.87585642,128.6510708
서울양동초등학교,초등학교,1972-08-11,공립,본교,서울특별시 양천구 오목로23길 24,서울특별시교육청,서울특별시강서양천교육지원청,37.52584826,126.8512402
한국과학영재학교,고등학교,1991-03-04,국립,본교,부산광역시 부산진구 백양관문로 105-47,부산광역시교육청,부산광역시남부교육지원청,35.16520011,129.0257844
대구남산고등학교,고등학교,1944-04-30,사립,본교,대구광역시 수성구 신천동로 364,대구광역시교육청,대구광역시동부교육지원청,35.85731247,128.6091788
고헌중학교,중학교,2020-03-01,공립,본교,울산광역시 북구 박상진2로 81,울산광역시교육청,울산광역시강북교육지원청,35.59777915,129.364027
서감초등학교,초등학교,1984-03-30,공립,본교,부산광역시 사상구 괘감로 64,부산광역시교육청,부산광역시북부교육지원청,35.15782029,128.9820602
울산중앙중학교,중학교,1981-09-27,공립,본교,울산광역시 남구 중앙로63번길 5,울산광역시교육청,울산광역시강남교육지원청,35.5260243,129.3156805
수완하나중학교,중학교,2015-03-01,공립,본교,광주광역시 광산구 수완로105번길 47,광주광역시교육청,광주광역시서부교육지원청,35.19420808,126.8275242
경운중학교,중학교,2001-01-04,공립,본교,경상남도 김해시 우암로 62,경상남도교육청,경상남도김해교육지원청,35.23612594,128.8618342
무거고등학교,고등학교,2006-03-01,공립,본교,울산광역시 남구 대학로1번길 17-28,울산광역시교육청,울산광역시강남교육지원청,35.53627893,129.2507423
거제초등학교,초등학교,1946-06-01,공립,본교,부산광역시 연제구 해맞이로 39,부산광역시교육청,부산광역시동래교육지원청,35.17807396,129.0675717
성서중학교,중학교,1969-11-07,공립,본교,대구광역시 달서구 용산서로 63,대구광역시교육청,대구광역시남부교육지원청,35.8558081,128.5266048
서울상봉초등학교,초등학교,1983-10-25,공립,본교,서울특별시 중랑구 동일로126가길 11,서울특별시교육청,서울특별시동부교육지원청,37.59797895,127.0831714
서울원광초등학교,초등학교,1992-07-01,공립,본교,서울특별시 노원구 덕릉로76길 18,서울특별시교육청,서울특별시북부교육지원청,37.65431092,127.0749142
서울월계초등학교,초등학교,1993-05-06,공립,본교,서울특별시 노원구 월계로45가길 10,서울특별시교육청,서울특별시북부교육지원청,37.62762424,127.0501876
우신고등학교,고등학교,1974-05-23,사립,본교,서울특별시 구로구 부일로 917,서울특별시교육청,서울특별시남부교육지원청,37.49490231,126.8263536
주천고등학교,고등학교,1945-09-16,공립,본교,강원도 영월군 주천면 주천로89번길 41,강원도교육청,강원도영월교육지원청,37.27355179,128.2650794
대전신계초등학교,초등학교,2005-09-01,공립,본교,대전광역시 서구 복수동로 26,대전광역시교육청,대전광역시서부교육지원청,36.30195202,127.3780278
강경상업고등학교,고등학교,1920-05-25,공립,본교,충청남도 논산시 강경읍 계백로 220,충청남도교육청,충청남도논산계룡교육지원청,36.16142445,127.023298
근덕초등학교,초등학교,1922-05-17,공립,본교,강원도 삼척시 근덕면 삼척로 3653,강원도교육청,강원도삼척교육지원청,37.38092428,129.2244956
송해초등학교,초등학교,1933-10-06,공립,본교,인천광역시 강화군 송해면 전망대로 93-12,인천광역시교육청,인천광역시강화교육지원청,37.7694551,126.4610541
광명남초등학교,초등학교,1974-08-05,공립,본교,경기도 광명시 광명로 866-9,경기도교육청,경기도광명교육지원청,37.47512708,126.8537024
광명동초등학교,초등학교,1983-05-18,공립,본교,경기도 광명시 연서일로 25,경기도교육청,경기도광명교육지원청,37.48395181,126.8633963
청학초등학교,초등학교,1954-06-20,공립,본교,부산광역시 영도구 청학로 49,부산광역시교육청,부산광역시서부교육지원청,35.09320176,129.0595039
중일고등학교,고등학교,1988-03-15,사립,본교,대전광역시 유성구 배울2로 68,대전광역시교육청,대전광역시서부교육지원청,36.42052491,127.3886965
영신중학교,중학교,1946-10-17,사립,본교,대구광역시 동구 팔공로50길 32,대구광역시교육청,대구광역시동부교육지원청,35.92000422,128.646424
부일전자디자인고등학교,고등학교,1992-06-30,사립,본교,부산광역시 사하구 감천로73번길 36,부산광역시교육청,부산광역시서부교육지원청,35.09073609,129.0025604
서울영상고등학교,고등학교,1961-12-08,사립,본교,서울특별시 양천구 목동로11길 46,서울특별시교육청,서울특별시강서양천교육지원청,37.52330444,126.8602935
대전교촌초등학교,초등학교,2007-03-01,공립,본교,대전광역시 유성구 진잠로149번길 42,대전광역시교육청,대전광역시서부교육지원청,36.30602189,127.3167705
김해중학교,중학교,1951-09-01,공립,본교,경상남도 김해시 호계로 456,경상남도교육청,경상남도김해교육지원청,35.23110531,128.8861356
신명여자중학교,중학교,1907-10-15,사립,본교,대구광역시 수성구 신천동로 364,대구광역시교육청,대구광역시동부교육지원청,35.85731247,128.6091788
대구명덕초등학교,초등학교,1940-04-05,공립,본교,대구광역시 중구 남산로2길 125,대구광역시교육청,대구광역시동부교육지원청,35.85754073,128.5890267
광명고등학교,고등학교,1974-11-29,공립,본교,경기도 광명시 오리로876번길 17,경기도교육청,경기도광명교육지원청,37.47857117,126.8659896
신광중학교,중학교,1981-03-06,공립,본교,광주광역시 북구 면앙로165번길 80,광주광역시교육청,광주광역시동부교육지원청,35.17953334,126.9321202
양구여자고등학교,고등학교,1974-10-04,공립,본교,강원도 양구군 양구읍 박수근로 327,강원도교육청,강원도양구교육지원청,38.1009114,127.9808197
정신여자중학교,중학교,1887-10-20,사립,본교,서울특별시 송파구 올림픽로4길 16,서울특별시교육청,서울특별시강동송파교육지원청,37.50945384,127.0738473
덕명여자중학교,중학교,1953-07-03,사립,본교,부산광역시 부산진구 봉수로 13,부산광역시교육청,부산광역시남부교육지원청,35.15108044,129.0704519
대전여자고등학교,고등학교,1937-05-01,공립,본교,대전광역시 동구 용운로1번길 28-37,대전광역시교육청,대전광역시동부교육지원청,36.33001268,127.4463707
대구조야초등학교,초등학교,1983-12-08,공립,본교,대구광역시 북구 조야로8길 16,대구광역시교육청,대구광역시서부교육지원청,35.90971918,128.577048
남산중학교,중학교,1991-01-14,공립,본교,부산광역시 금정구 금단로 114,부산광역시교육청,부산광역시동래교육지원청,35.25981702,129.0936509
남산초등학교,초등학교,1987-03-01,공립,본교,부산광역시 금정구 금강로 614,부산광역시교육청,부산광역시동래교육지원청,35.26214065,129.0891842
양산제일고등학교,고등학교,1994-03-01,사립,본교,경상남도 양산시 회현1길 36,경상남도교육청,경상남도양산교육지원청,35.34459992,129.023799
서울송례초등학교,초등학교,2014-05-01,공립,본교,서울특별시 송파구 위례순환로 439,서울특별시교육청,서울특별시강동송파교육지원청,37.4778913,127.1384402
송례중학교,중학교,2014-05-01,공립,본교,서울특별시 송파구 위례순환로 429,서울특별시교육청,서울특별시강동송파교육지원청,37.47783301,127.1397415
관천중학교,중학교,1994-05-06,공립,본교,대구광역시 북구 구암로22길 7,대구광역시교육청,대구광역시서부교육지원청,35.93116386,128.5526133
송산중학교,중학교,1981-01-19,공립,본교,충청남도 당진시 송산면 도문로 48,충청남도교육청,충청남도당진교육지원청,36.934811,126.6859161
시화중학교,중학교,2006-03-01,공립,본교,경기도 시흥시 큰솔로52번길 23,경기도교육청,경기도시흥교육지원청,37.34098555,126.7561913
거제고등학교,고등학교,1948-10-16,사립,본교,경상남도 거제시 아주로3길 61,경상남도교육청,경상남도거제교육지원청,34.86108759,128.6884261
거제공업고등학교,고등학교,1969-03-06,공립,본교,경상남도 거제시 계룡로11길 63,경상남도교육청,경상남도거제교육지원청,34.88210511,128.614194
부산소프트웨어마이스터고등학교,고등학교,1970-03-26,공립,본교,부산광역시 강서구 가락대로 1393,부산광역시교육청,부산광역시북부교육지원청,35.18926099,128.9039687
광명광성초등학교,초등학교,1987-11-16,공립,본교,경기도 광명시 철산로 59,경기도교육청,경기도광명교육지원청,37.47885028,126.873071
대구태전초등학교,초등학교,1994-03-01,공립,본교,대구광역시 북구 칠곡중앙대로75길 16,대구광역시교육청,대구광역시서부교육지원청,35.93024595,128.5460016
대흥고등학교,고등학교,1966-02-22,사립,본교,충청남도 예산군 대흥면 예당로 845,충청남도교육청,충청남도예산교육지원청,36.60548656,126.7916056
성안중학교,중학교,2001-05-06,공립,본교,울산광역시 중구 성안2길 30,울산광역시교육청,울산광역시강북교육지원청,35.57278036,129.3178978
성안초등학교,초등학교,2003-03-01,공립,본교,울산광역시 중구 함월14길 19,울산광역시교육청,울산광역시강북교육지원청,35.57656119,129.3124344
다송중학교,중학교,1993-02-20,공립,본교,부산광역시 사하구 다송로 55,부산광역시교육청,부산광역시서부교육지원청,35.06434989,128.9847862
합천초등학교,초등학교,1970-03-01,공립,본교,충청남도 청양군 화성면 무한로 88,충청남도교육청,충청남도청양교육지원청,36.42586476,126.7146112
군산대성중학교,중학교,1966-03-11,사립,본교,전라북도 군산시 임피면 임피향교길 44-6,전라북도교육청,전라북도군산교육지원청,35.98863023,126.8486974
대구동문초등학교,초등학교,1982-12-06,공립,본교,대구광역시 수성구 효행로2길 111,대구광역시교육청,대구광역시동부교육지원청,35.87481761,128.6524258
상평초등학교현서분교장,초등학교,1942-08-22,공립,분교,강원도 양양군 서면 구룡령로 2115,강원도교육청,강원도속초양양교육지원청,37.98772697,128.529879
원촌중학교,중학교,1983-04-26,공립,본교,서울특별시 서초구 사평대로45길 10,서울특별시교육청,서울특별시강남서초교육지원청,37.5063251,127.0146997
경상여자고등학교,고등학교,1957-05-25,사립,본교,대구광역시 북구 침산남로9길 164,대구광역시교육청,대구광역시서부교육지원청,35.90054196,128.5878439
일광초등학교,초등학교,2020-03-01,공립,본교,부산광역시 기장군 일광면 해빛로 46,부산광역시교육청,부산광역시해운대교육지원청,35.26821044,129.2230225
춘천삼육초등학교,초등학교,1955-04-01,사립,본교,강원도 춘천시 동면 방죽길 56-10,강원도교육청,강원도춘천교육지원청,37.91159681,127.75432
석천중학교,중학교,1969-10-04,공립,본교,강원도 양구군 양구읍 박수근로 327,강원도교육청,강원도양구교육지원청,38.1009114,127.9808197
기장중학교,중학교,1954-05-31,공립,본교,부산광역시 기장군 기장읍 읍내로 120,부산광역시교육청,부산광역시해운대교육지원청,35.24488187,129.2183149
운호중학교,중학교,1968-03-06,사립,본교,충청북도 청주시 서원구 무심서로 375,충청북도교육청,충청북도청주교육지원청,36.62505317,127.4851868
문현고등학교,고등학교,2006-03-01,공립,본교,울산광역시 동구 화잠7길 25,울산광역시교육청,울산광역시강북교육지원청,35.48239565,129.4091804
만리포중학교,중학교,1968-03-22,공립,본교,충청남도 태안군 소원면 소근로 63-12,충청남도교육청,충청남도태안교육지원청,36.76552125,126.1939311
춘천여자고등학교,고등학교,1934-04-10,공립,본교,강원도 춘천시 동면 만천양지길 95,강원도교육청,강원도춘천교육지원청,37.88848989,127.7635403
대전원신흥중학교,중학교,2022-02-01,공립,본교,대전광역시 유성구 동서대로735번길 20,대전광역시교육청,대전광역시서부교육지원청,36.33301958,127.3453452
공산중학교,중학교,1954-04-19,사립,본교,대구광역시 동구 팔공로197길 26,대구광역시교육청,대구광역시동부교육지원청,35.95506586,128.6906838
상명대학교사범대학부속여자고등학교,고등학교,1967-03-07,사립,본교,서울특별시 종로구 홍지문2길 20,서울특별시교육청,서울특별시중부교육지원청,37.60410891,126.9551595
황지고등학교,고등학교,1966-03-15,공립,본교,강원도 태백시 번영로 179,강원도교육청,강원도태백교육지원청,37.16112037,128.9855688
서울양원초등학교,초등학교,1991-05-06,공립,본교,서울특별시 양천구 화곡로 16,서울특별시교육청,서울특별시강서양천교육지원청,37.53821733,126.8231052
보수초등학교,초등학교,1953-07-09,공립,본교,부산광역시 중구 흑교로 74,부산광역시교육청,부산광역시서부교육지원청,35.10607215,129.024219
계촌중학교,중학교,1969-03-12,공립,본교,강원도 평창군 방림면 계촌길 139,강원도교육청,강원도평창교육지원청,37.45322867,128.3083929
상평초등학교,초등학교,1934-10-10,공립,본교,강원도 양양군 서면 물윗구미길 25,강원도교육청,강원도속초양양교육지원청,38.07341515,128.5859389
서울강남초등학교,초등학교,1945-11-02,공립,본교,서울특별시 동작구 강남초등길 15,서울특별시교육청,서울특별시동작관악교육지원청,37.50619275,126.9533591
계동초등학교,초등학교,2002-09-01,공립,본교,경상남도 김해시 계동로 96,경상남도교육청,경상남도김해교육지원청,35.1847881,128.7956854
신탄진중학교,중학교,1964-11-14,사립,본교,대전광역시 대덕구 석봉로 15,대전광역시교육청,대전광역시동부교육지원청,36.44731214,127.4234779
대구동부고등학교,고등학교,1988-05-15,사립,본교,대구광역시 동구 반야월북로 199,대구광역시교육청,대구광역시동부교육지원청,35.87429023,128.7190722
밀성제일고등학교,고등학교,1974-01-05,사립,본교,경상남도 밀양시 밀양대로 2078,경상남도교육청,경상남도밀양교육지원청,35.50218318,128.750145
안명초등학교,초등학교,1948-03-25,공립,본교,경상남도 김해시 한림면 안하로 28,경상남도교육청,경상남도김해교육지원청,35.30441614,128.82801
대전배울초등학교,초등학교,2006-03-01,공립,본교,대전광역시 유성구 배울2로 8,대전광역시교육청,대전광역시서부교육지원청,36.4219077,127.3841459
상평초등학교공수전분교장,초등학교,1951-12-20,공립,분교,강원도 양양군 서면 구룡령로 2855,강원도교육청,강원도속초양양교육지원청,38.0417294,128.557252
진천고등학교,고등학교,1976-12-28,공립,본교,충청북도 진천군 진천읍 문화12길 48,충청북도교육청,충청북도진천교육지원청,36.8539549,127.4499542
옥동중학교,중학교,1973-10-08,공립,본교,강원도 영월군 김삿갓면 영월동로 1664,강원도교육청,강원도영월교육지원청,37.12816565,128.5706668
옥동초등학교,초등학교,1925-08-31,공립,본교,강원도 영월군 김삿갓면 영월동로 1679,강원도교육청,강원도영월교육지원청,37.1304806,128.5698387
양주중학교,중학교,1970-03-16,공립,본교,경상남도 양산시 상북면 양주마을2길 18,경상남도교육청,경상남도양산교육지원청,35.41517665,129.0677568
서천중학교,중학교,2011-06-07,공립,본교,경기도 용인시 기흥구 서천동로 7,경기도교육청,경기도용인교육지원청,37.24001911,127.0758949
양도초등학교,초등학교,1918-04-01,공립,본교,인천광역시 강화군 양도면 강화남로 1036,인천광역시교육청,인천광역시강화교육지원청,37.68897162,126.4193695
남성중학교,중학교,1983-04-29,공립,본교,서울특별시 동작구 남부순환로269길 166,서울특별시교육청,서울특별시동작관악교육지원청,37.47900822,126.972489
서해초등학교,초등학교,1996-11-01,공립,본교,경기도 시흥시 정왕대로53번길 14,경기도교육청,경기도시흥교육지원청,37.35612237,126.7251312
고산초등학교,초등학교,1945-05-01,공립,본교,제주특별자치도 제주시 한경면 고산로1길 16,제주특별자치도교육청,제주특별자치도제주시교육지원청,33.30452697,126.1768735
인천송일초등학교,초등학교,2015-09-01,공립,본교,인천광역시 연수구 컨벤시아대로252번길 15,인천광역시교육청,인천광역시동부교육지원청,37.38418802,126.635135
인천만월초등학교,초등학교,1989-03-01,공립,본교,인천광역시 남동구 선수촌로 28,인천광역시교육청,인천광역시동부교육지원청,37.44180662,126.7155208
대전흥룡초등학교,초등학교,1979-10-02,공립,본교,대전광역시 동구 동대전로256번길 21,대전광역시교육청,대전광역시동부교육지원청,36.34556389,127.4479362
세화여자중학교,중학교,1978-05-06,사립,본교,서울특별시 서초구 신반포로 56-7,서울특별시교육청,서울특별시강남서초교육지원청,37.5019828,126.99423
응봉초등학교,초등학교,1934-06-16,공립,본교,충청남도 예산군 응봉면 예당로 1504,충청남도교육청,충청남도예산교육지원청,36.65638487,126.7704003
상인고등학교,고등학교,2001-06-05,공립,본교,대구광역시 달서구 상인로 24,대구광역시교육청,대구광역시남부교육지원청,35.81045198,128.5512978
영흥고등학교,고등학교,1980-10-18,사립,본교,전라남도 목포시 삼각로43번길 9,전라남도교육청,전라남도목포교육지원청,34.80525243,126.416556
화정남초등학교,초등학교,1992-04-06,공립,본교,광주광역시 서구 염화로 37,광주광역시교육청,광주광역시서부교육지원청,35.13785632,126.8716253
인헌중학교,중학교,1971-05-20,공립,본교,서울특별시 관악구 인헌9길 35,서울특별시교육청,서울특별시동작관악교육지원청,37.47269621,126.9688402
마산여자고등학교,고등학교,1915-02-21,공립,본교,경상남도 창원시 마산합포구 고운로 157,경상남도교육청,경상남도창원교육지원청,35.19593834,128.5614097
소래초등학교,초등학교,1920-07-04,공립,본교,경기도 시흥시 호현로27번길 14,경기도교육청,경기도시흥교육지원청,37.44407883,126.7835268
북동중학교,중학교,2005-03-24,공립,본교,대구광역시 달성군 논공읍 논공로7길 43,대구광역시교육청,대구광역시달성교육지원청,35.73243383,128.4374066
논공중학교,중학교,1996-11-09,공립,본교,대구광역시 달성군 논공읍 논공로 256,대구광역시교육청,대구광역시달성교육지원청,35.72382525,128.4572009
청솔초등학교,초등학교,2007-03-02,공립,본교,울산광역시 남구 삼산로94번길 20,울산광역시교육청,울산광역시강남교육지원청,35.53318138,129.3178478
성심여자중학교,중학교,1957-05-25,사립,본교,서울특별시 용산구 원효로19길 49,서울특별시교육청,서울특별시중부교육지원청,37.53420937,126.9545934
용남중학교,중학교,1987-12-30,공립,본교,충청남도 계룡시 신도안면 신도안2길 66,충청남도교육청,충청남도논산계룡교육지원청,36.30064433,127.2441239
구암중학교,중학교,1995-03-01,공립,본교,대구광역시 북구 태암로 85,대구광역시교육청,대구광역시서부교육지원청,35.92751351,128.5571252
신촌초등학교,초등학교,1945-09-01,공립,본교,제주특별자치도 제주시 조천읍 신북로 51,제주특별자치도교육청,제주특별자치도제주시교육지원청,33.53447338,126.6195153
대전동광초등학교,초등학교,1936-04-13,공립,본교,대전광역시 동구 백룡로11번길 20,대전광역시교육청,대전광역시동부교육지원청,36.3373476,127.4495505
봉일천고등학교,고등학교,2007-03-01,공립,본교,경기도 파주시 조리읍 소곡로 54,경기도교육청,경기도파주교육지원청,37.74699036,126.8162726
안성중학교,중학교,1939-04-15,공립,본교,경기도 안성시 금산길 43,경기도교육청,경기도안성교육지원청,37.01331333,127.2704648
서울잠일초등학교,초등학교,1976-10-01,공립,본교,서울특별시 송파구 올림픽로 95,서울특별시교육청,서울특별시강동송파교육지원청,37.51474166,127.0816362
태종대중학교,중학교,1974-12-21,공립,본교,부산광역시 영도구 함지로79번길 9,부산광역시교육청,부산광역시서부교육지원청,35.07367396,129.0649205
혜화초등학교,초등학교,1965-01-27,사립,본교,부산광역시 동래구 명장로99번길 25,부산광역시교육청,부산광역시동래교육지원청,35.20226047,129.1132938
연신초등학교,초등학교,1984-01-30,공립,본교,부산광역시 연제구 신금로23번길 30,부산광역시교육청,부산광역시동래교육지원청,35.19248231,129.0931595
홍익디자인고등학교,고등학교,1992-07-27,사립,본교,서울특별시 마포구 성미산로 111,서울특별시교육청,서울특별시서부교육지원청,37.56351064,126.9191663
간성초등학교,초등학교,1910-05-10,공립,본교,강원도 고성군 간성읍 간성로 39,강원도교육청,강원도고성교육지원청,38.37894215,128.4706698
모산초등학교,초등학교,1941-09-28,공립,본교,강원도 강릉시 모산로224번길 3,강원도교육청,강원도강릉교육지원청,37.73184003,128.9017805
가조초등학교,초등학교,1922-04-01,공립,본교,경상남도 거창군 가조면 가조가야로 1087,경상남도교육청,경상남도거창교육지원청,35.71149883,128.0136443
하안중학교,중학교,1993-05-04,공립,본교,경기도 광명시 안현로 80-1,경기도교육청,경기도광명교육지원청,37.46738575,126.8807721
현산중학교,중학교,2004-03-01,공립,본교,경기도 고양시 일산서구 일청로 85,경기도교육청,경기도고양교육지원청,37.69124586,126.774003
보은고등학교,고등학교,1976-03-06,사립,본교,충청북도 보은군 보은읍 보은로 17,충청북도교육청,충청북도보은교육지원청,36.47530948,127.7205512
센텀중학교,중학교,2006-10-04,공립,본교,부산광역시 해운대구 센텀북대로 32,부산광역시교육청,부산광역시해운대교육지원청,35.17536656,129.1237586
진례초등학교,초등학교,1926-03-31,공립,본교,경상남도 김해시 진례면 송현로 74-12,경상남도교육청,경상남도김해교육지원청,35.24774012,128.756134
인천연송고등학교,고등학교,2013-03-01,공립,본교,인천광역시 연수구 컨벤시아대로42번길 72,인천광역시교육청,인천광역시동부교육지원청,37.40316747,126.6467361
광명북중학교,중학교,1985-12-18,공립,본교,경기도 광명시 시청로 121,경기도교육청,경기도광명교육지원청,37.48714374,126.8657712
반곡초등학교,초등학교,2008-03-01,공립,본교,강원도 원주시 동부순환로 247,강원도교육청,강원도원주교육지원청,37.33734175,127.9730349
서울위례솔초등학교,초등학교,2022-03-01,공립,본교,서울특별시 송파구 위례북로2길 12,서울특별시교육청,서울특별시강동송파교육지원청,37.48663746,127.1509109
위례솔중학교,중학교,2022-03-01,공립,본교,서울특별시 송파구 위례북로2길 10,서울특별시교육청,서울특별시교육청,37.48738292,127.1503042
정선중학교,중학교,1946-10-25,공립,본교,강원도 정선군 정선읍 봉양4길 15,강원도교육청,강원도정선교육지원청,37.37821677,128.6609171
광주서광중학교,중학교,1970-03-05,공립,본교,광주광역시 남구 진다리로24번길 13,광주광역시교육청,광주광역시서부교육지원청,35.13634616,126.9042624
과천여자고등학교,고등학교,1976-03-02,사립,본교,경기도 과천시 희망길 36,경기도교육청,경기도안양과천교육지원청,37.43264355,126.9881073
과천외국어고등학교,고등학교,1990-05-05,사립,본교,경기도 과천시 희망길 36,경기도교육청,경기도안양과천교육지원청,37.43264355,126.9881073
하안북초등학교,초등학교,1988-02-06,공립,본교,경기도 광명시 가림로 18,경기도교육청,경기도광명교육지원청,37.46470851,126.8691342
동화초등학교,초등학교,2004-05-19,공립,본교,강원도 원주시 문막읍 왕건로 83,강원도교육청,강원도원주교육지원청,37.3274788,127.8285781
구봉초등학교,초등학교,1980-05-14,공립,본교,경상남도 김해시 구지로 99-26,경상남도교육청,경상남도김해교육지원청,35.24083851,128.8737724
두송중학교,중학교,2006-03-03,공립,본교,부산광역시 사하구 다송로 76,부산광역시교육청,부산광역시서부교육지원청,35.06065932,128.9829531
하안북중학교,중학교,1975-12-06,공립,본교,경기도 광명시 가림로 22,경기도교육청,경기도광명교육지원청,37.46508438,126.8677256
여수해양과학고등학교,고등학교,1980-03-08,공립,본교,전라남도 여수시 돌산읍 돌산로 1201-18,전라남도교육청,전라남도여수교육지원청,34.61413689,127.727
수동초등학교,초등학교,1920-04-10,공립,본교,경상남도 함양군 수동면 연화산길 18-1,경상남도교육청,경상남도함양교육지원청,35.52327173,127.7909028
부산남일고등학교,고등학교,1984-12-17,공립,본교,부산광역시 수영구 망미배산로48번길 85-23,부산광역시교육청,부산광역시해운대교육지원청,35.17856564,129.1011712
호계초등학교,초등학교,2002-09-01,공립,본교,경상남도 창원시 마산회원구 내서읍 광려천북로 182,경상남도교육청,경상남도창원교육지원청,35.26562301,128.5228101
인천청람초등학교,초등학교,2013-03-01,공립,본교,인천광역시 서구 청라커낼로 336,인천광역시교육청,인천광역시서부교육지원청,37.53869636,126.6453133
서울마천초등학교,초등학교,1978-05-04,공립,본교,서울특별시 송파구 마천로61다길 24,서울특별시교육청,서울특별시강동송파교육지원청,37.49550545,127.1526295
삼방초등학교,초등학교,1991-03-01,공립,본교,경상남도 김해시 삼안로235번길 20,경상남도교육청,경상남도김해교육지원청,35.24892927,128.9077058
소양고등학교,고등학교,1910-04-29,공립,본교,강원도 춘천시 영서로 2872,강원도교육청,강원도춘천교육지원청,37.91001603,127.7232945
낙민초등학교,초등학교,1980-12-26,공립,본교,부산광역시 동래구 충렬대로272번길 34,부산광역시교육청,부산광역시동래교육지원청,35.19942578,129.088343
대광고등학교,고등학교,1947-10-25,사립,본교,서울특별시 동대문구 안암로 6,서울특별시교육청,서울특별시동부교육지원청,37.57795467,127.0253235
상사초등학교,초등학교,1932-04-23,공립,본교,전라남도 순천시 상사면 상사초등길 55,전라남도교육청,전라남도순천교육지원청,34.94378905,127.4453763
문산제일고등학교,고등학교,1942-04-07,공립,본교,경기도 파주시 평화로 190,경기도교육청,경기도파주교육지원청,37.77260399,126.7628873
대구과학기술고등학교,고등학교,1997-02-25,공립,본교,대구광역시 서구 당산로 228,대구광역시교육청,대구광역시서부교육지원청,35.85749282,128.5482964
오산고현초등학교,초등학교,2007-09-01,공립,본교,경기도 오산시 남부대로 459,경기도교육청,경기도화성오산교육지원청,37.1334449,127.0851451
상동고등학교,고등학교,1955-12-31,공립,본교,강원도 영월군 상동읍 태백산로 3147,강원도교육청,강원도영월교육지원청,37.12525841,128.8224544
운남중학교,중학교,2021-03-01,공립,본교,경상북도 김천시 우래1길 7,경상북도교육청,경상북도김천교육지원청,36.12200032,128.1791173
신명초등학교,초등학교,2004-03-01,공립,본교,경상남도 양산시 신명로 108,경상남도교육청,경상남도양산교육지원청,35.38832306,129.142633
길상초등학교,초등학교,1920-07-10,공립,본교,인천광역시 강화군 길상면 삼랑성길 22,인천광역시교육청,인천광역시강화교육지원청,37.63846399,126.4904289
반산초등학교,초등학교,1990-03-01,공립,본교,부산광역시 해운대구 재반로 171,부산광역시교육청,부산광역시해운대교육지원청,35.19344143,129.1296328
묘장초등학교,초등학교,1968-03-01,공립,본교,강원도 철원군 철원읍 묘장로 344,강원도교육청,강원도철원교육지원청,38.26408626,127.1648028
풍산고등학교,고등학교,1974-03-01,사립,본교,경상북도 안동시 풍산읍 풍산중앙길 39,경상북도교육청,경상북도안동교육지원청,36.58414665,128.5665358
대구달서초등학교,초등학교,1979-09-05,공립,본교,대구광역시 서구 국채보상로34길 35,대구광역시교육청,대구광역시서부교육지원청,35.86684409,128.5505467
센텀고등학교,고등학교,2008-03-01,공립,본교,부산광역시 해운대구 해운대로 246,부산광역시교육청,부산광역시해운대교육지원청,35.17710343,129.1269806
동명초등학교,초등학교,1938-07-04,공립,본교,강원도 강릉시 경강로 2473,강원도교육청,강원도강릉교육지원청,37.77543116,128.9287446
호성중학교,중학교,2003-03-01,공립,본교,경기도 안양시 동안구 호성로 55,경기도교육청,경기도안양과천교육지원청,37.36691837,126.9637649
경산제일중학교,중학교,1969-12-15,사립,본교,경상북도 경산시 자인면 원효로 851-16,경상북도교육청,경상북도경산교육지원청,35.81594134,128.8278876
함양여자중학교,중학교,1960-04-07,공립,본교,경상남도 함양군 함양읍 함양여중길 18-9,경상남도교육청,경상남도함양교육지원청,35.52395122,127.7246365
김해건설공업고등학교,고등학교,1977-12-16,공립,본교,경상남도 김해시 구지로 109,경상남도교육청,경상남도김해교육지원청,35.23954528,128.8759904
한국교원대학교부설월곡초등학교,초등학교,1943-04-08,국립,본교,충청북도 청주시 흥덕구 강내면 가로수로 562,충청북도교육청,충청북도청주교육지원청,36.62329394,127.3623674
동산초등학교,초등학교,1952-05-06,공립,본교,경상북도 청도군 매전면 동산길 43,경상북도교육청,경상북도청도교육지원청,35.66745663,128.8547025
인천포스코고등학교,고등학교,2015-03-01,사립,본교,인천광역시 연수구 컨벤시아대로42번길 50,인천광역시교육청,인천광역시동부교육지원청,37.40146601,126.6483623
송지초등학교,초등학교,1923-11-01,공립,본교,전라남도 해남군 송지면 산정1길 101,전라남도교육청,전라남도해남교육지원청,34.36913394,126.5204387
성창여자고등학교,고등학교,1980-11-26,사립,본교,경상북도 안동시 석수길 53,경상북도교육청,경상북도안동교육지원청,36.5787438,128.7126189
서울한남초등학교,초등학교,1906-09-23,공립,본교,서울특별시 용산구 한남대로 112,서울특별시교육청,서울특별시중부교육지원청,37.53920365,127.0055998
명산초등학교,초등학교,1944-05-10,공립,본교,울산광역시 울주군 서생면 화산발리로 60,울산광역시교육청,울산광역시강남교육지원청,35.35107394,129.2961501
별가람초등학교,초등학교,2015-05-01,공립,본교,경기도 남양주시 별내3로 173,경기도교육청,경기도구리남양주교육지원청,37.6541801,127.1242259
광양마동중학교,중학교,2015-09-22,공립,본교,전라남도 광양시 느지매기길 7,전라남도교육청,전라남도광양교육지원청,34.95426716,127.6878322
유림초등학교,초등학교,1932-09-26,공립,본교,경상남도 함양군 유림면 천왕봉로 2927,경상남도교육청,경상남도함양교육지원청,35.47252104,127.7930744
호계초등학교,초등학교,1981-06-05,공립,본교,경기도 안양시 동안구 경수대로707번길 27,경기도교육청,경기도안양과천교육지원청,37.38427093,126.9501232
안성여자중학교,중학교,1943-04-22,공립,본교,경기도 안성시 중앙2길 111,경기도교육청,경기도안성교육지원청,37.00836663,127.275693
연곡초등학교,초등학교,1958-04-01,공립,본교,경기도 양주시 백석읍 월암로170번길 107,경기도교육청,경기도동두천양주교육지원청,37.80715791,126.9611638
솔빛초등학교,초등학교,2019-05-01,공립,본교,세종특별자치시 반곡2길 21,세종특별자치시교육청,세종특별자치시교육청,36.49576022,127.3122737
대구하빈초등학교,초등학교,1924-04-15,공립,본교,대구광역시 달성군 하빈면 하빈로 391-1,대구광역시교육청,대구광역시달성교육지원청,35.90163733,128.4421117
대구효목초등학교,초등학교,1969-06-10,공립,본교,대구광역시 동구 화랑로27길 25,대구광역시교육청,대구광역시동부교육지원청,35.8760038,128.6415759
숭덕여자고등학교,고등학교,1986-03-03,사립,본교,인천광역시 남동구 만수로73번길 20-23,인천광역시교육청,인천광역시동부교육지원청,37.46428211,126.7339171
산마을고등학교,고등학교,2000-03-01,사립,본교,인천광역시 강화군 양도면 강화남로1002번길 73-29,인천광역시교육청,인천광역시강화교육지원청,37.68636257,126.4255653
대구서부고등학교,고등학교,1997-02-25,공립,본교,대구광역시 서구 국채보상로53길 32,대구광역시교육청,대구광역시서부교육지원청,35.87365309,128.5602007
안동여자고등학교,고등학교,1942-05-01,공립,본교,경상북도 안동시 법상윗3길 32,경상북도교육청,경상북도안동교육지원청,36.57303974,128.7256251
남목초등학교,초등학교,1921-05-09,공립,본교,울산광역시 동구 옥류로 33,울산광역시교육청,울산광역시강북교육지원청,35.54248574,129.4247502
청완초등학교,초등학교,1970-11-19,공립,본교,전라북도 완주군 봉동읍 완주산단9로 80,전라북도교육청,전라북도완주교육지원청,35.96359933,127.1204786
대구대청초등학교,초등학교,1987-12-18,공립,본교,대구광역시 수성구 교학로12길 42,대구광역시교육청,대구광역시동부교육지원청,35.85090611,128.6501674
인천청호초등학교,초등학교,2021-03-01,공립,본교,인천광역시 서구 청라한울로 44,인천광역시교육청,인천광역시서부교육지원청,37.53839244,126.6412777
동대전고등학교,고등학교,1982-10-23,공립,본교,대전광역시 대덕구 청림길 33,대전광역시교육청,대전광역시동부교육지원청,36.35628714,127.4236428
복수초등학교,초등학교,1929-04-20,공립,본교,충청남도 금산군 복수면 복수로 137,충청남도교육청,충청남도금산교육지원청,36.16619225,127.397808
인천청라중학교,중학교,2011-03-01,공립,본교,인천광역시 서구 청라라임로 112,인천광역시교육청,인천광역시서부교육지원청,37.53783941,126.653874
인천부평동초등학교,초등학교,1940-04-24,공립,본교,인천광역시 부평구 부평대로88번길 19,인천광역시교육청,인천광역시북부교육지원청,37.49951398,126.7244083
동곡초등학교,초등학교,1932-06-01,공립,본교,광주광역시 광산구 동곡로 151-17,광주광역시교육청,광주광역시서부교육지원청,35.09810123,126.7735415
동산중학교,중학교,1970-05-06,공립,본교,강원도 춘천시 동산면 영서로 461-22,강원도교육청,강원도춘천교육지원청,37.75022835,127.7909631
대성고등학교,고등학교,1954-05-07,사립,본교,강원도 원주시 북원로 2001,강원도교육청,강원도원주교육지원청,37.32730971,127.9208654
송광중학교,중학교,2004-03-02,공립,본교,광주광역시 광산구 송정로 74,광주광역시교육청,광주광역시서부교육지원청,35.13340294,126.7979491
수동중학교,중학교,1954-05-31,공립,본교,경상남도 함양군 수동면 수동내동길 19,경상남도교육청,경상남도함양교육지원청,35.52433595,127.7895834
사직여자고등학교,고등학교,1986-12-22,사립,본교,부산광역시 동래구 쇠미로27번길 21,부산광역시교육청,부산광역시동래교육지원청,35.1968431,129.0514472
대전지족고등학교,고등학교,2004-03-01,공립,본교,대전광역시 유성구 노은서로 202,대전광역시교육청,대전광역시서부교육지원청,36.37803212,127.3156568
다정고등학교,고등학교,2019-03-01,공립,본교,세종특별자치시 다정남로 15,세종특별자치시교육청,세종특별자치시교육청,36.49334119,127.2422287
괘릉초등학교,초등학교,1959-12-10,공립,본교,경상북도 경주시 외동읍 신계입실길 139-5,경상북도교육청,경상북도경주교육지원청,35.76040764,129.322567
대구대곡초등학교,초등학교,1996-10-28,공립,본교,대구광역시 달서구 도원남로 60,대구광역시교육청,대구광역시남부교육지원청,35.8032986,128.5357039
서울자곡초등학교,초등학교,2014-10-24,공립,본교,서울특별시 강남구 자곡로 150,서울특별시교육청,서울특별시강남서초교육지원청,37.47219072,127.0996665
김해생명과학고등학교,고등학교,1927-05-05,공립,본교,경상남도 김해시 금관대로 1239,경상남도교육청,경상남도김해교육지원청,35.23723898,128.8552702
대구매천초등학교,초등학교,1949-08-20,공립,본교,대구광역시 북구 매천로 179,대구광역시교육청,대구광역시서부교육지원청,35.91332651,128.5410367
대구남명초등학교,초등학교,1984-03-01,공립,본교,대구광역시 남구 큰골4길 41,대구광역시교육청,대구광역시남부교육지원청,35.83436385,128.5819866
서울명신초등학교,초등학교,1971-10-06,공립,본교,서울특별시 종로구 낙산길 250,서울특별시교육청,서울특별시중부교육지원청,37.58146865,127.0146229
도산초등학교,초등학교,2006-05-06,공립,본교,광주광역시 광산구 송정외로 6,광주광역시교육청,광주광역시서부교육지원청,35.12619291,126.7917518
등명중학교,중학교,1995-05-06,공립,본교,서울특별시 강서구 공항대로39길 39,서울특별시교육청,서울특별시강서양천교육지원청,37.56019335,126.8433041
서울서원초등학교,초등학교,1985-04-22,공립,본교,서울특별시 서초구 고무래로 63,서울특별시교육청,서울특별시강남서초교육지원청,37.5024389,127.0146195
서대전여자고등학교,고등학교,1983-11-21,사립,본교,대전광역시 서구 배재로197번길 20,대전광역시교육청,대전광역시서부교육지원청,36.32773715,127.369556
합포고등학교,고등학교,1989-02-18,공립,본교,경상남도 창원시 마산합포구 무학로 458,경상남도교육청,경상남도창원교육지원청,35.20941219,128.5643386
서울신내초등학교,초등학교,1994-05-06,공립,본교,서울특별시 중랑구 용마산로125나길 22,서울특별시교육청,서울특별시동부교육지원청,37.60493422,127.1001285
서울중곡초등학교,초등학교,1967-09-05,공립,본교,서울특별시 중랑구 면목로23길 20,서울특별시교육청,서울특별시동부교육지원청,37.57489173,127.083439
마차초등학교,초등학교,1941-06-01,공립,본교,강원도 영월군 북면 밤재로 221,강원도교육청,강원도영월교육지원청,37.25744112,128.4536987
원묵고등학교,고등학교,2007-05-31,공립,본교,서울특별시 중랑구 숙선옹주로 82,서울특별시교육청,서울특별시동부교육지원청,37.61523231,127.0855078
서울전농초등학교,초등학교,1942-04-08,공립,본교,서울특별시 동대문구 사가정로 66,서울특별시교육청,서울특별시동부교육지원청,37.57473031,127.0543331
대구동신초등학교,초등학교,1970-03-01,공립,본교,대구광역시 동구 송라로 123,대구광역시교육청,대구광역시동부교육지원청,35.87827471,128.6150277
모충초등학교,초등학교,1967-09-02,공립,본교,충청북도 청주시 서원구 쌍샘로 49,충청북도교육청,충청북도청주교육지원청,36.62568942,127.478354
대명중학교,중학교,1970-06-05,공립,본교,대구광역시 남구 앞산순환로 477,대구광역시교육청,대구광역시남부교육지원청,35.83308922,128.5767451
연지초등학교,초등학교,1962-03-01,공립,본교,부산광역시 부산진구 연지로 29,부산광역시교육청,부산광역시남부교육지원청,35.1727095,129.0521377
인천경연중학교,중학교,2020-03-01,공립,본교,인천광역시 서구 차오름로 64,인천광역시교육청,인천광역시서부교육지원청,37.53849651,126.6262363
애월초등학교,초등학교,1923-09-04,공립,본교,제주특별자치도 제주시 애월읍 애월로 139-10,제주특별자치도교육청,제주특별자치도제주시교육지원청,33.46548949,126.3224061
삼광고등학교,고등학교,1981-11-28,사립,본교,경기도 파주시 적성면 청송로 701,경기도교육청,경기도파주교육지원청,37.94557773,126.8855095
인평중학교,중학교,2009-03-01,공립,본교,경상북도 칠곡군 북삼읍 북삼로 223,경상북도교육청,경상북도칠곡교육지원청,36.06259352,128.3356923
서울신곡초등학교,초등학교,1984-10-22,공립,본교,서울특별시 강서구 등촌로13자길 42-14,서울특별시교육청,서울특별시강서양천교육지원청,37.53909546,126.8560096
조산초등학교,초등학교,1944-04-10,공립,본교,강원도 양양군 양양읍 동해대로 3020,강원도교육청,강원도속초양양교육지원청,38.11371111,128.6323998
대구구암초등학교,초등학교,1995-09-01,공립,본교,대구광역시 북구 학정로 245,대구광역시교육청,대구광역시서부교육지원청,35.9281013,128.5577604
단국대학교사범대학부속고등학교,고등학교,1983-12-26,사립,본교,서울특별시 강남구 도곡로64길 21,서울특별시교육청,서울특별시강남서초교육지원청,37.49561749,127.0577682
서운초등학교,초등학교,1927-04-10,공립,본교,경기도 안성시 서운면 서운초교길 24,경기도교육청,경기도안성교육지원청,36.94646272,127.2549898
서울불광초등학교,초등학교,1962-04-18,공립,본교,서울특별시 은평구 불광로 51,서울특별시교육청,서울특별시서부교육지원청,37.61342945,126.9307187
죽성초등학교,초등학교,1957-04-16,공립,본교,부산광역시 기장군 기장읍 죽성로 270,부산광역시교육청,부산광역시해운대교육지원청,35.24275627,129.2436029
안민중학교,중학교,2018-05-01,공립,본교,경상남도 창원시 성산구 안민로160번길 11,경상남도교육청,경상남도창원교육지원청,35.18365416,128.6933757
나주상업고등학교,고등학교,1967-03-08,공립,본교,전라남도 나주시 함박산길 23-4,전라남도교육청,전라남도나주교육지원청,35.04269594,126.722411
대구용호초등학교,초등학교,1999-03-01,공립,본교,대구광역시 동구 동촌로56길 82,대구광역시교육청,대구광역시동부교육지원청,35.8773574,128.6723645
유곡중학교,중학교,2003-03-01,공립,본교,울산광역시 중구 유곡로 85,울산광역시교육청,울산광역시강북교육지원청,35.55882497,129.299591
가덕초등학교,초등학교,1921-05-11,공립,본교,충청북도 청주시 상당구 가덕면 단재로 1448,충청북도교육청,충청북도청주교육지원청,36.5779265,127.5784827
이서중학교,중학교,1952-02-03,사립,본교,경상북도 청도군 이서면 학산1길 22,경상북도교육청,경상북도청도교육지원청,35.66249467,128.6684614
충현고등학교,고등학교,1997-01-14,공립,본교,경기도 광명시 오리로348번길 62,경기도교육청,경기도광명교육지원청,37.43295996,126.8845281
정선정보공업고등학교,고등학교,1951-10-25,공립,본교,강원도 정선군 정선읍 용담샛길 2,강원도교육청,강원도정선교육지원청,37.38045612,128.6471346
서울논현초등학교,초등학교,1972-11-23,공립,본교,서울특별시 강남구 강남대로120길 33,서울특별시교육청,서울특별시강남서초교육지원청,37.5084232,127.0262229
풍암중학교,중학교,2000-03-08,공립,본교,광주광역시 서구 풍암순환로 51,광주광역시교육청,광주광역시서부교육지원청,35.12235904,126.8781231
대구수창초등학교,초등학교,1907-07-13,공립,본교,대구광역시 중구 달성로22길 30,대구광역시교육청,대구광역시동부교육지원청,35.87429166,128.5834453
대흥중학교,중학교,1995-03-01,공립,본교,경기도 시흥시 서해안로 1587,경기도교육청,경기도시흥교육지원청,37.44744016,126.784073
서울구룡초등학교,초등학교,1985-05-06,공립,본교,서울특별시 강남구 개포로 263,서울특별시교육청,서울특별시강남서초교육지원청,37.48119739,127.0517714
대곡고등학교,고등학교,2003-06-07,공립,본교,대구광역시 달서구 도원남로 80,대구광역시교육청,대구광역시남부교육지원청,35.80323736,128.536857
광명고등학교,고등학교,1973-12-24,사립,본교,부산광역시 영도구 와치로 131,부산광역시교육청,부산광역시서부교육지원청,35.08366549,129.0646045
대구두류초등학교,초등학교,1986-03-11,공립,본교,대구광역시 서구 달구벌대로357길 22,대구광역시교육청,대구광역시서부교육지원청,35.86161552,128.5599761
구산고등학교,고등학교,2015-03-01,공립,본교,경상남도 김해시 가야로 311,경상남도교육청,경상남도김해교육지원청,35.25044359,128.8756694
광주용산초등학교,초등학교,1988-05-21,공립,본교,광주광역시 동구 화산로 334,광주광역시교육청,광주광역시동부교육지원청,35.11876782,126.9316526
서울독립문초등학교,초등학교,1957-09-28,공립,본교,서울특별시 종로구 통일로12길 23,서울특별시교육청,서울특별시중부교육지원청,37.57421553,126.9599722
서울신성초등학교,초등학교,1982-10-11,공립,본교,서울특별시 관악구 신림로 114,서울특별시교육청,서울특별시동작관악교육지원청,37.47200331,126.9367542
복주여자중학교,중학교,1981-12-08,공립,본교,경상북도 안동시 안기천로 58,경상북도교육청,경상북도안동교육지원청,36.56259417,128.7180369
성읍초등학교,초등학교,1937-09-01,공립,본교,제주특별자치도 서귀포시 표선면 성읍민속로 65,제주특별자치도교육청,제주특별자치도서귀포시교육지원청,33.38427482,126.7985093
태흥초등학교,초등학교,1947-03-02,공립,본교,제주특별자치도 서귀포시 남원읍 태위로 915,제주특별자치도교육청,제주특별자치도서귀포시교육지원청,33.28622541,126.7434137
대구경운초등학교,초등학교,1977-06-20,공립,본교,대구광역시 서구 평리로54길 16,대구광역시교육청,대구광역시서부교육지원청,35.86088038,128.5527191
원주금융회계고등학교,고등학교,1980-11-26,공립,본교,강원도 원주시 부론면 부귀로 35,강원도교육청,강원도원주교육지원청,37.20782695,127.7516585
황전초등학교회덕분교장,초등학교,1960-05-22,공립,분교,전라남도 순천시 황전면 삽재팔동길 377,전라남도교육청,전라남도순천교육지원청,35.10847899,127.4957748
안녕초등학교,초등학교,2006-03-01,공립,본교,경기도 화성시 화산로 2,경기도교육청,경기도화성오산교육지원청,37.20589222,127.0085343
연제초등학교,초등학교,1967-08-09,공립,본교,부산광역시 연제구 중앙대로1065번길 14,부산광역시교육청,부산광역시동래교육지원청,35.18405401,129.0778742
동부중학교,중학교,1960-05-03,공립,본교,경상남도 거제시 동부면 동부로 28-6,경상남도교육청,경상남도거제교육지원청,34.82084244,128.6079629
거창중학교고제분교장,중학교,1971-12-27,공립,분교,경상남도 거창군 고제면 고제로 48,경상남도교육청,경상남도거창교육지원청,35.81412414,127.8735691
인구초등학교,초등학교,1923-05-10,공립,본교,강원도 양양군 현남면 해송천로 10,강원도교육청,강원도속초양양교육지원청,37.968083,128.7583979
고암초등학교,초등학교,1926-09-13,공립,본교,경상남도 창녕군 고암면 고암성산대로 6-5,경상남도교육청,경상남도창녕교육지원청,35.57763144,128.5114792
예산중앙초등학교,초등학교,1957-10-07,공립,본교,충청남도 예산군 예산읍 주교로 21,충청남도교육청,충청남도예산교육지원청,36.68418744,126.8314072
철산중학교,중학교,1983-01-02,공립,본교,경기도 광명시 철망산로 71,경기도교육청,경기도광명교육지원청,37.47030832,126.8753237
철산초등학교,초등학교,1982-09-01,공립,본교,경기도 광명시 하안로 392,경기도교육청,경기도광명교육지원청,37.46979433,126.8745934
일도초등학교,초등학교,1968-03-02,공립,본교,제주특별자치도 제주시 삼성로9길 27,제주특별자치도교육청,제주특별자치도제주시교육지원청,33.50907824,126.5294157
고성고등학교,고등학교,1958-05-25,공립,본교,강원도 고성군 간성읍 수성로 125,강원도교육청,강원도고성교육지원청,38.3782834,128.4610029
장평초등학교,초등학교,1954-02-02,공립,본교,강원도 평창군 용평면 갈정지길 35-43,강원도교육청,강원도평창교육지원청,37.59256373,128.4107169
서울공진초등학교,초등학교,1992-11-05,공립,본교,서울특별시 강서구 마곡서로 33,서울특별시교육청,서울특별시강서양천교육지원청,37.55780477,126.8226104
이서고등학교,고등학교,1966-01-17,사립,본교,경상북도 청도군 이서면 학산1길 22,경상북도교육청,경상북도청도교육지원청,35.66249467,128.6684614
서울영화초등학교,초등학교,1962-09-03,공립,본교,서울특별시 동작구 등용로8길 3,서울특별시교육청,서울특별시동작관악교육지원청,37.50890811,126.9329735
안양관악초등학교,초등학교,2000-03-01,공립,본교,경기도 안양시 동안구 일동로 201,경기도교육청,경기도안양과천교육지원청,37.40664855,126.9681914
대술초등학교,초등학교,1931-06-01,공립,본교,충청남도 예산군 대술면 원농리길 12,충청남도교육청,충청남도예산교육지원청,36.65667977,126.8960835
벽방초등학교,초등학교,1922-04-15,공립,본교,경상남도 통영시 광도면 안정로 815,경상남도교육청,경상남도통영교육지원청,34.94845464,128.4099257
치악고등학교,고등학교,2005-04-15,공립,본교,강원도 원주시 치악고교길 16,강원도교육청,강원도원주교육지원청,37.31576468,127.9585892
장흥초등학교,초등학교,1955-04-20,공립,본교,강원도 철원군 동송읍 태봉로 2017,강원도교육청,강원도철원교육지원청,38.19337131,127.2668579
안성초등학교,초등학교,1902-09-15,공립,본교,경기도 안성시 혜산로 13,경기도교육청,경기도안성교육지원청,37.0122701,127.2725354
영천초등학교,초등학교,1911-09-01,공립,본교,경상북도 영천시 천문로 253,경상북도교육청,경상북도영천교육지원청,35.9617556,128.9314309
창원대산중학교,중학교,1949-04-26,사립,본교,경상남도 창원시 의창구 대산면 진산대로 380,경상남도교육청,경상남도창원교육지원청,35.33415986,128.710433
경안고등학교,고등학교,1954-02-20,사립,본교,경상북도 안동시 제비원로 182,경상북도교육청,경상북도안동교육지원청,36.56850446,128.7204749
원북초등학교,초등학교,1932-06-11,공립,본교,충청남도 태안군 원북면 원이로 849-3,충청남도교육청,충청남도태안교육지원청,36.8262041,126.2585619
남목고등학교,고등학교,2008-03-01,공립,본교,울산광역시 동구 방어진순환도로 1200,울산광역시교육청,울산광역시강북교육지원청,35.53801042,129.4187517
대구불로초등학교,초등학교,1984-04-06,공립,본교,대구광역시 동구 방천로3길 19,대구광역시교육청,대구광역시동부교육지원청,35.89748035,128.633502
상명대학교사범대학부속여자중학교,중학교,1966-11-17,사립,본교,서울특별시 종로구 홍지문2길 20,서울특별시교육청,서울특별시중부교육지원청,37.60410891,126.9551595
상명대학교사범대학부속초등학교,초등학교,1966-05-17,사립,본교,서울특별시 종로구 홍지문2길 1,서울특별시교육청,서울특별시중부교육지원청,37.60044056,126.9567149
삼도초등학교,초등학교,1921-10-02,공립,본교,광주광역시 광산구 용진로 9,광주광역시교육청,광주광역시서부교육지원청,35.1643748,126.7008559
남외초등학교,초등학교,2006-11-13,공립,본교,울산광역시 중구 남외3길 40,울산광역시교육청,울산광역시강북교육지원청,35.56569625,129.349081
동국대학교사범대학부속고등학교,고등학교,1947-06-24,사립,본교,서울특별시 동대문구 장안벚꽃로 201,서울특별시교육청,서울특별시동부교육지원청,37.57804718,127.075133
하안남초등학교,초등학교,1991-03-01,공립,본교,경기도 광명시 금당로 71,경기도교육청,경기도광명교육지원청,37.46217243,126.8852513
한국생명과학고등학교,고등학교,1933-04-20,공립,본교,경상북도 안동시 하이마로 385,경상북도교육청,경상북도안동교육지원청,36.55044902,128.6877646
성희여자고등학교,고등학교,1984-11-07,사립,본교,경상북도 안동시 강남로 246,경상북도교육청,경상북도안동교육지원청,36.55153109,128.7291442
경일고등학교,고등학교,1972-06-17,사립,본교,경상북도 안동시 치이골길 46,경상북도교육청,경상북도안동교육지원청,36.57569842,128.7378295
보문고등학교,고등학교,1975-03-01,사립,본교,광주광역시 광산구 어등대로529번길 37,광주광역시교육청,광주광역시서부교육지원청,35.15386307,126.7768705
대구내서초등학교,초등학교,1988-10-20,공립,본교,대구광역시 서구 달구벌대로371길 35,대구광역시교육청,대구광역시서부교육지원청,35.86381964,128.56676
세성초등학교,초등학교,1936-04-01,공립,본교,충청북도 충주시 살미면 매남이길 31,충청북도교육청,충청북도충주교육지원청,36.90479486,127.9692482
도리초등학교,초등학교,1946-12-01,공립,본교,제주특별자치도 제주시 도리로 129,제주특별자치도교육청,제주특별자치도제주시교육지원청,33.50185617,126.4654959
대구장산초등학교,초등학교,1999-05-04,공립,본교,대구광역시 달서구 장산로 30,대구광역시교육청,대구광역시남부교육지원청,35.85483742,128.5265018
철암초등학교,초등학교,1941-11-11,공립,본교,강원도 태백시 동태백로 584,강원도교육청,강원도태백교육지원청,37.12174675,129.0429224
대구중리초등학교,초등학교,1954-03-19,공립,본교,대구광역시 서구 국채보상로 135,대구광역시교육청,대구광역시서부교육지원청,35.86971383,128.5454392
봉영여자중학교,중학교,1951-10-08,사립,본교,서울특별시 양천구 목동동로2길 68,서울특별시교육청,서울특별시강서양천교육지원청,37.50921598,126.8601984
백학중학교,중학교,1971-04-27,공립,본교,경기도 연천군 백학면 두일로 79,경기도교육청,경기도연천교육지원청,38.02671508,126.9083579
대구북부초등학교,초등학교,1995-09-01,공립,본교,대구광역시 북구 동천로 20,대구광역시교육청,대구광역시서부교육지원청,35.93347965,128.559214
서울잠실초등학교,초등학교,1975-10-31,공립,본교,서울특별시 송파구 올림픽로35길 20,서울특별시교육청,서울특별시강동송파교육지원청,37.52010753,127.1113114
경덕여자고등학교,고등학교,1983-09-23,공립,본교,대구광역시 서구 국채보상로34길 50,대구광역시교육청,대구광역시서부교육지원청,35.86357119,128.5489381
김천부곡초등학교,초등학교,2001-03-01,공립,본교,경상북도 김천시 부곡맛고을1길 147,경상북도교육청,경상북도김천교육지원청,36.12486641,128.0950564
세종고등학교,고등학교,1926-04-29,공립,본교,세종특별자치시 조치원읍 조치원중고길 10,세종특별자치시교육청,세종특별자치시교육청,36.6113263,127.298987
양구초등학교,초등학교,1911-04-01,공립,본교,강원도 양구군 양구읍 양구새싹로 48,강원도교육청,강원도양구교육지원청,38.10290823,127.9914525
서진초등학교,초등학교,2014-05-01,공립,본교,경상남도 진주시 새평거로 85,경상남도교육청,경상남도진주교육지원청,35.16901963,128.056655
함지고등학교,고등학교,2008-03-01,공립,본교,대구광역시 북구 학정로48길 46,대구광역시교육청,대구광역시서부교육지원청,35.92786841,128.5605125
무주초등학교,초등학교,1909-09-03,공립,본교,전라북도 무주군 무주읍 향한로 43,전라북도교육청,전라북도무주교육지원청,36.01027836,127.6603152
거성초등학교,초등학교,1969-03-08,공립,본교,강원도 고성군 거진읍 거성길 38,강원도교육청,강원도고성교육지원청,38.45258108,128.4571606
고명외식고등학교,고등학교,1956-02-21,사립,본교,서울특별시 성북구 북악산로 870,서울특별시교육청,서울특별시성북강북교육지원청,37.59767468,127.0191869
경원고등학교,고등학교,1975-12-01,사립,본교,대구광역시 달서구 새방로 77,대구광역시교육청,대구광역시남부교육지원청,35.86547932,128.525679
대진중학교,중학교,2006-03-01,공립,본교,대구광역시 달서구 화암로73길 7,대구광역시교육청,대구광역시남부교육지원청,35.80572575,128.5195259
산양초등학교풍화분교장,초등학교,1941-03-01,공립,분교,경상남도 통영시 산양읍 풍화일주로 388,경상남도교육청,경상남도통영교육지원청,34.82677989,128.3580467
옥종고등학교,고등학교,1973-03-06,공립,본교,경상남도 하동군 옥종면 옥수로 4-9,경상남도교육청,경상남도하동교육지원청,35.17816307,127.8845972
부산해사고등학교,고등학교,1977-08-30,국립,본교,부산광역시 영도구 해양로 425,부산광역시교육청,부산광역시서부교육지원청,35.0741905,129.0770175
수곡초등학교,초등학교,1995-03-01,공립,본교,충청북도 청주시 서원구 수곡로 73,충청북도교육청,충청북도청주교육지원청,36.61836437,127.4711256
대구칠곡초등학교,초등학교,1912-04-01,공립,본교,대구광역시 북구 칠곡중앙대로110길 5,대구광역시교육청,대구광역시서부교육지원청,35.94517087,128.5517244
광주화정중학교,중학교,1979-09-01,공립,본교,광주광역시 서구 화운로 53,광주광역시교육청,광주광역시서부교육지원청,35.14412529,126.8823691
혜광고등학교,고등학교,1955-03-29,사립,본교,부산광역시 중구 망양로259번길 5,부산광역시교육청,부산광역시서부교육지원청,35.10879982,129.0246054
봉래초등학교,초등학교,1946-05-20,공립,본교,강원도 영월군 영월읍 중앙로 168-17,강원도교육청,강원도영월교육지원청,37.17711747,128.4749781
영월중학교,중학교,1946-08-19,공립,본교,강원도 영월군 영월읍 오무개길 51,강원도교육청,강원도영월교육지원청,37.19059443,128.4711874
서울가원초등학교,초등학교,1988-12-08,공립,본교,서울특별시 송파구 중대로4길 8,서울특별시교육청,서울특별시강동송파교육지원청,37.48944215,127.1110274
모전중학교,중학교,2014-03-01,공립,본교,부산광역시 기장군 정관읍 정관1로 9,부산광역시교육청,부산광역시해운대교육지원청,35.33811873,129.1621538
목동중학교,중학교,1981-05-20,공립,본교,서울특별시 양천구 목동동로 172,서울특별시교육청,서울특별시강서양천교육지원청,37.5209572,126.8714631
울산제일고등학교,고등학교,1988-03-27,사립,본교,울산광역시 남구 남부순환도로 107,울산광역시교육청,울산광역시강남교육지원청,35.54258944,129.2681645
울산중앙초등학교,초등학교,1972-03-11,공립,본교,울산광역시 남구 돋질로91번길 34,울산광역시교육청,울산광역시강남교육지원청,35.54114344,129.3155287
봄내중학교,중학교,1934-04-10,공립,본교,강원도 춘천시 공지로200번길 36,강원도교육청,강원도춘천교육지원청,37.86546754,127.7407637
육민관고등학교,고등학교,1946-03-15,사립,본교,강원도 원주시 흥업면 북원로 1800,강원도교육청,강원도원주교육지원청,37.30936357,127.9184855
남외중학교,중학교,2007-03-01,공립,본교,울산광역시 중구 남외3길 50,울산광역시교육청,울산광역시강북교육지원청,35.56644838,129.3491332
서울교육대학교부설초등학교,초등학교,1953-05-22,국립,본교,서울특별시 서초구 서초중앙로 96,서울특별시교육청,서울특별시강남서초교육지원청,37.49074049,127.0154245
대구신암초등학교,초등학교,1949-11-03,공립,본교,대구광역시 북구 경대로 21,대구광역시교육청,대구광역시서부교육지원청,35.88376431,128.611623
부산기계공업고등학교,고등학교,1967-03-11,국립,본교,부산광역시 해운대구 해운대로 569,부산광역시교육청,부산광역시해운대교육지원청,35.16184146,129.1528983
대구월곡초등학교,초등학교,1992-10-22,공립,본교,대구광역시 달서구 상인로 40,대구광역시교육청,대구광역시남부교육지원청,35.8121612,128.5492653
은빛초등학교,초등학교,2013-03-01,공립,본교,광주광역시 광산구 수완로33번길 11,광주광역시교육청,광주광역시서부교육지원청,35.18772659,126.8276603
동송초등학교,초등학교,1954-07-01,공립,본교,강원도 철원군 동송읍 금학로187번길 16-13,강원도교육청,강원도철원교육지원청,38.20391455,127.216704
도산초등학교,초등학교,2003-09-01,공립,본교,울산광역시 남구 번영로54번길 25,울산광역시교육청,울산광역시강남교육지원청,35.53059993,129.3332999
서울연촌초등학교,초등학교,1945-11-10,공립,본교,서울특별시 노원구 공릉로58길 36,서울특별시교육청,서울특별시북부교육지원청,37.63441465,127.0725113
명덕초등학교,초등학교,1991-03-01,공립,본교,울산광역시 동구 진성14길 15,울산광역시교육청,울산광역시강북교육지원청,35.50594478,129.4245916
상현고등학교,고등학교,2012-03-01,공립,본교,경기도 용인시 수지구 법조로 222,경기도교육청,경기도용인교육지원청,37.29911295,127.0743761
하원초등학교,초등학교,1971-03-19,공립,본교,제주특별자치도 서귀포시 월평하원로 149,제주특별자치도교육청,제주특별자치도서귀포시교육지원청,33.25334293,126.4594523
충주용산초등학교,초등학교,1999-09-01,공립,본교,충청북도 충주시 남산로 109,충청북도교육청,충청북도충주교육지원청,36.96227839,127.9445948
두촌중학교,중학교,1952-05-30,공립,본교,강원도 홍천군 두촌면 증골길 61,강원도교육청,강원도홍천교육지원청,37.87177845,128.0263307
수정초등학교,초등학교,1935-04-01,공립,본교,부산광역시 동구 진성로 29,부산광역시교육청,부산광역시남부교육지원청,35.13126429,129.0467273
대구명곡초등학교,초등학교,2003-03-01,공립,본교,대구광역시 달성군 화원읍 명곡로 40,대구광역시교육청,대구광역시달성교육지원청,35.79667071,128.4961175
태안고등학교,고등학교,1963-03-20,공립,본교,충청남도 태안군 태안읍 백화로 251,충청남도교육청,충청남도태안교육지원청,36.75429893,126.3178128
대구경진초등학교,초등학교,1984-05-30,공립,본교,대구광역시 북구 경진로12길 5,대구광역시교육청,대구광역시서부교육지원청,35.8920273,128.6170925
안양고등학교,고등학교,1983-01-10,공립,본교,경기도 안양시 만안구 삼봉로 46,경기도교육청,경기도안양과천교육지원청,37.40048898,126.90136
소래중학교,중학교,1959-04-12,공립,본교,경기도 시흥시 은행로 60,경기도교육청,경기도시흥교육지원청,37.43735861,126.7967625
능인중학교,중학교,1939-10-09,사립,본교,대구광역시 수성구 무학로 207,대구광역시교육청,대구광역시동부교육지원청,35.83210847,128.6325471
진해여자고등학교,고등학교,1923-04-29,공립,본교,경상남도 창원시 진해구 여좌남로 23,경상남도교육청,경상남도창원교육지원청,35.1563023,128.6575727
대구용산초등학교,초등학교,1985-03-01,공립,본교,대구광역시 달서구 와룡로49길 80,대구광역시교육청,대구광역시남부교육지원청,35.85522492,128.5320515
대구죽전초등학교,초등학교,1983-01-26,공립,본교,대구광역시 달서구 죽전길 127,대구광역시교육청,대구광역시남부교육지원청,35.85778703,128.5399269
학산여자중학교,중학교,1951-08-06,사립,본교,부산광역시 동래구 충렬사로51번길 61,부산광역시교육청,부산광역시동래교육지원청,35.20475284,129.096168
덕계초등학교,초등학교,1943-04-01,공립,본교,경상남도 양산시 덕계로 92,경상남도교육청,경상남도양산교육지원청,35.37511901,129.1535923
해미중학교,중학교,1952-04-15,공립,본교,충청남도 서산시 해미면 남문2로 93,충청남도교육청,충청남도서산교육지원청,36.71515062,126.5444134
녹수초등학교,초등학교,1994-03-01,공립,본교,울산광역시 동구 봉수로 545,울산광역시교육청,울산광역시강북교육지원청,35.53085123,129.4286585
방이중학교,중학교,1985-04-12,공립,본교,서울특별시 송파구 오금로11길 64,서울특별시교육청,서울특별시강동송파교육지원청,37.51501058,127.1132445
광주인성고등학교,고등학교,1974-03-05,사립,본교,광주광역시 남구 서문대로 390,광주광역시교육청,광주광역시서부교육지원청,35.10283514,126.8813301
진영중학교,중학교,2007-03-01,공립,본교,경상남도 김해시 진영읍 장등로 29,경상남도교육청,경상남도김해교육지원청,35.30905482,128.7344574
동명초등학교,초등학교,1918-04-01,공립,본교,대전광역시 동구 천개동로 16,대전광역시교육청,대전광역시동부교육지원청,36.37434465,127.4742833
서생초등학교,초등학교,1923-04-01,공립,본교,울산광역시 울주군 서생면 신암해안길 58,울산광역시교육청,울산광역시강남교육지원청,35.34971092,129.3275121
서울영도초등학교,초등학교,1986-11-27,공립,본교,서울특별시 양천구 목동중앙로 70,서울특별시교육청,서울특별시강서양천교육지원청,37.53596257,126.871927
중원중학교,중학교,1991-05-06,공립,본교,서울특별시 노원구 공릉로 420,서울특별시교육청,서울특별시북부교육지원청,37.64423868,127.0680295
신관중학교,중학교,1984-04-27,공립,본교,서울특별시 관악구 신림로48길 17-16,서울특별시교육청,서울특별시동작관악교육지원청,37.48020125,126.9344522
인천신현초등학교,초등학교,1982-03-01,공립,본교,인천광역시 서구 율도로77번길 1,인천광역시교육청,인천광역시서부교육지원청,37.51473968,126.6701041
한얼중학교,중학교,1946-10-24,공립,본교,경상남도 김해시 진영읍 진영로265번길 9-8,경상남도교육청,경상남도김해교육지원청,35.30449312,128.7420673
대천중학교,중학교,1983-11-01,공립,본교,부산광역시 남구 신선로 491,부산광역시교육청,부산광역시남부교육지원청,35.12854485,129.1033023
소천초등학교,초등학교,1930-10-20,공립,본교,경상북도 봉화군 소천면 소천로 1284,경상북도교육청,경상북도봉화교육지원청,36.93823299,129.0018681
덕원중학교,중학교,1953-07-13,사립,본교,부산광역시 중구 망양로 356,부산광역시교육청,부산광역시서부교육지원청,35.10885429,129.0324467
학성초등학교,초등학교,1968-10-29,공립,본교,울산광역시 중구 해오름1길 15,울산광역시교육청,울산광역시강북교육지원청,35.55959985,129.34263
일산초등학교,초등학교,1924-09-16,공립,본교,경기도 고양시 일산서구 일중로15번길 38,경기도교육청,경기도고양교육지원청,37.68298887,126.7719674
부구초등학교,초등학교,1932-12-01,공립,본교,경상북도 울진군 북면 울진북로 2081,경상북도교육청,경상북도울진교육지원청,37.10258912,129.3719829
동항초등학교,초등학교,1939-04-13,공립,본교,부산광역시 남구 우암로 42,부산광역시교육청,부산광역시남부교육지원청,35.11401535,129.0829062
부산영선중학교,중학교,1953-05-01,공립,본교,부산광역시 영도구 영상길 83,부산광역시교육청,부산광역시서부교육지원청,35.08626719,129.0446792
사하중학교,중학교,1970-01-13,공립,본교,부산광역시 사하구 낙동대로302번길 35,부산광역시교육청,부산광역시서부교육지원청,35.10124786,128.9826725
대구노전초등학교,초등학교,1995-10-28,공립,본교,대구광역시 달서구 한실로 43,대구광역시교육청,대구광역시남부교육지원청,35.80817454,128.5312233
연미초등학교,초등학교,1972-09-16,공립,본교,부산광역시 연제구 금련로38번길 84,부산광역시교육청,부산광역시동래교육지원청,35.17070549,129.0921122
서남중학교,중학교,1981-12-18,공립,본교,대구광역시 서구 당산로41서길 97,대구광역시교육청,대구광역시서부교육지원청,35.85695496,128.5425852
창신초등학교,초등학교,1964-06-01,공립,본교,부산광역시 연제구 종합운동장로12번길 15,부산광역시교육청,부산광역시동래교육지원청,35.19281291,129.0658519
김해구지초등학교,초등학교,2005-10-26,공립,본교,경상남도 김해시 구산로5번길 45,경상남도교육청,경상남도김해교육지원청,35.25298107,128.8697306
서울신길초등학교,초등학교,1964-03-12,공립,본교,서울특별시 동작구 알마타길 16,서울특별시교육청,서울특별시동작관악교육지원청,37.51087166,126.9267292
세종중학교,중학교,1927-03-01,공립,본교,세종특별자치시 조치원읍 새내로 160,세종특별자치시교육청,세종특별자치시교육청,36.60705472,127.2977981
대구매곡초등학교,초등학교,2009-03-01,공립,본교,대구광역시 달성군 다사읍 대실역북로3길 6,대구광역시교육청,대구광역시달성교육지원청,35.86225581,128.4681199
수도전기공업고등학교,고등학교,1924-03-02,사립,본교,서울특별시 강남구 개포로 410,서울특별시교육청,서울특별시강남서초교육지원청,37.48493754,127.0644787
대전봉명초등학교,초등학교,2011-03-01,공립,본교,대전광역시 유성구 계룡로132번길 62,대전광역시교육청,대전광역시서부교육지원청,36.34960625,127.343466
교동초등학교,초등학교,1986-06-05,공립,본교,부산광역시 동래구 시실로 73-13,부산광역시교육청,부산광역시동래교육지원청,35.21545808,129.0921765
성저초등학교,초등학교,1995-09-01,공립,본교,경기도 고양시 일산서구 성저로 92,경기도교육청,경기도고양교육지원청,37.68474502,126.7573647
북성초등학교,초등학교,1983-09-19,공립,본교,경상남도 창원시 마산회원구 석전북1길 3,경상남도교육청,경상남도창원교육지원청,35.23179348,128.5700226
일산고등학교,고등학교,1956-05-04,공립,본교,경기도 고양시 일산서구 원일로 53,경기도교육청,경기도고양교육지원청,37.6889721,126.7683384
울산강남중학교,중학교,1983-10-25,공립,본교,울산광역시 남구 돋질로325번길 14,울산광역시교육청,울산광역시강남교육지원청,35.54588733,129.3415029
가창중학교,중학교,1963-07-05,사립,본교,대구광역시 달성군 가창면 원정길 2,대구광역시교육청,대구광역시달성교육지원청,35.77402651,128.6440241
학성여자중학교,중학교,1946-10-15,공립,본교,울산광역시 중구 명정3길 12,울산광역시교육청,울산광역시강북교육지원청,35.5546567,129.2906648
경명여자중학교,중학교,1955-05-09,사립,본교,대구광역시 북구 칠성로17길 18,대구광역시교육청,대구광역시서부교육지원청,35.88072706,128.5984327
마사고등학교실습지,고등학교,2002-10-01,사립,본교,전라북도 장수군 천천면 승마로 1005-31,전라북도교육청,전라북도장수교육지원청,35.70108474,127.5112784
서서울생활과학고등학교,고등학교,1972-03-31,사립,본교,서울특별시 구로구 오리로 1355-10,서울특별시교육청,서울특별시남부교육지원청,37.50382919,126.8282007
선창초등학교,초등학교,2005-05-04,공립,본교,광주광역시 광산구 신창로35번길 67,광주광역시교육청,광주광역시서부교육지원청,35.18833602,126.8345325
대구대천초등학교,초등학교,1998-10-02,공립,본교,대구광역시 북구 구암로21길 54,대구광역시교육청,대구광역시서부교육지원청,35.93720911,128.5543646
구산초등학교,초등학교,2000-10-02,공립,본교,경상남도 김해시 가락로 310-36,경상남도교육청,경상남도김해교육지원청,35.25410197,128.8744875
삼산초등학교,초등학교,1931-10-29,공립,본교,인천광역시 강화군 삼산면 삼산북로 451,인천광역시교육청,인천광역시강화교육지원청,37.7030456,126.3216158
노음초등학교,초등학교,1936-09-28,공립,본교,경상북도 울진군 근남면 노음6길 22,경상북도교육청,경상북도울진교육지원청,36.95873936,129.3916661
함월초등학교,초등학교,1980-05-01,공립,본교,울산광역시 중구 학성1길 25,울산광역시교육청,울산광역시강북교육지원청,35.55901093,129.3291914
대성동초등학교,초등학교,1968-05-08,공립,본교,경기도 파주시 군내면 대성동길 150,경기도교육청,경기도파주교육지원청,37.94386756,126.6804818
덕송초등학교,초등학교,1969-03-01,공립,본교,대전광역시 유성구 현충원로 265,대전광역시교육청,대전광역시서부교육지원청,36.36138005,127.3025216
서벽초등학교,초등학교,1952-04-01,공립,본교,경상북도 봉화군 춘양면 춘양로 1424,경상북도교육청,경상북도봉화교육지원청,37.00881425,128.8336222
주엽초등학교,초등학교,1994-03-01,공립,본교,경기도 고양시 일산서구 강선로 29,경기도교육청,경기도고양교육지원청,37.66738993,126.7615108
영동고등학교,고등학교,1973-06-03,사립,본교,서울특별시 강남구 선릉로 742,서울특별시교육청,서울특별시강남서초교육지원청,37.52138901,127.0437393
노안남초등학교,초등학교,1963-02-08,공립,본교,전라남도 나주시 노안면 만호길 20-11,전라남도교육청,전라남도나주교육지원청,35.06767017,126.751206
서울대학교사범대학부설여자중학교,중학교,1969-03-03,국립,본교,서울특별시 종로구 대학로 64,서울특별시교육청,서울특별시중부교육지원청,37.5775997,127.0042955
서울미래초등학교,초등학교,2002-03-01,공립,본교,서울특별시 구로구 새말로 73,서울특별시교육청,서울특별시남부교육지원청,37.50510665,126.8880137
서해중학교,중학교,1997-03-01,공립,본교,경기도 시흥시 옥구천서로373번길 18,경기도교육청,경기도시흥교육지원청,37.35717907,126.7260914
대구죽곡초등학교,초등학교,2003-03-01,공립,본교,대구광역시 달성군 다사읍 죽곡1길 18,대구광역시교육청,대구광역시달성교육지원청,35.85679928,128.4633312
서대전고등학교,고등학교,1972-12-26,사립,본교,대전광역시 서구 월평동로 60,대전광역시교육청,대전광역시서부교육지원청,36.36013353,127.3695006
서울월촌초등학교,초등학교,1985-04-17,공립,본교,서울특별시 양천구 목동중앙로 132,서울특별시교육청,서울특별시강서양천교육지원청,37.54069543,126.876258
서울은정초등학교,초등학교,1996-07-10,공립,본교,서울특별시 양천구 목동남로 85,서울특별시교육청,서울특별시강서양천교육지원청,37.51112797,126.8670434
창원상남중학교,중학교,2002-01-03,공립,본교,경상남도 창원시 성산구 동산로55번길 9,경상남도교육청,경상남도창원교육지원청,35.21474025,128.6843651
중리중학교,중학교,1980-01-24,공립,본교,대구광역시 서구 국채보상로34길 63,대구광역시교육청,대구광역시서부교육지원청,35.86471469,128.5514912
강화여자고등학교,고등학교,1955-03-25,공립,본교,인천광역시 강화군 강화읍 송악길 58,인천광역시교육청,인천광역시강화교육지원청,37.75388637,126.4795303
신능중학교,중학교,1996-09-01,공립,본교,경기도 고양시 덕양구 충장로 78,경기도교육청,경기도고양교육지원청,37.61956704,126.8354977
한국산림과학고등학교,고등학교,1972-01-14,공립,본교,경상북도 봉화군 춘양면 서원촌길 8-14,경상북도교육청,경상북도봉화교육지원청,36.94786297,128.914111
브니엘고등학교,고등학교,1963-09-15,사립,본교,부산광역시 금정구 체육공원로 154,부산광역시교육청,부산광역시동래교육지원청,35.25485306,129.1039264
다사고등학교,고등학교,1974-12-28,공립,본교,대구광역시 달성군 다사읍 달구벌대로 839,대구광역시교육청,대구광역시달성교육지원청,35.86110567,128.4627608
달서고등학교,고등학교,1974-12-27,사립,본교,대구광역시 달성군 하빈면 하빈로 118,대구광역시교육청,대구광역시달성교육지원청,35.8861993,128.4214028
화촌중학교,중학교,1954-05-10,공립,본교,강원도 홍천군 화촌면 삼포5길 5,강원도교육청,강원도홍천교육지원청,37.75547209,127.9632163
일산대진고등학교,고등학교,1995-10-18,사립,본교,경기도 고양시 일산서구 대산로 246,경기도교육청,경기도고양교육지원청,37.68047139,126.7515967
재현고등학교,고등학교,1978-03-03,사립,본교,서울특별시 노원구 덕릉로82길 64,서울특별시교육청,서울특별시북부교육지원청,37.66129064,127.0807998
율곡중학교,중학교,1955-05-03,사립,본교,경기도 파주시 법원읍 사임당로905번길 10,경기도교육청,경기도파주교육지원청,37.8493834,126.8811406
거제상동초등학교,초등학교,2015-05-01,공립,본교,경상남도 거제시 상동5길 75-41,경상남도교육청,경상남도거제교육지원청,34.86188618,128.6339045
어유중학교,중학교,1979-10-28,공립,본교,경기도 파주시 적성면 율곡로 2875,경기도교육청,경기도파주교육지원청,37.99392706,126.9882777
용인한빛초등학교,초등학교,2010-06-01,공립,본교,경기도 용인시 수지구 동천로 153번길 23,경기도교육청,경기도용인교육지원청,37.33506501,127.0879351
달산초등학교,초등학교,2014-05-01,공립,본교,부산광역시 기장군 정관읍 정관로 674,부산광역시교육청,부산광역시해운대교육지원청,35.31928499,129.186736
창의경영고등학교,고등학교,1980-03-01,공립,본교,경기도 광명시 기아로13번안길9-9,경기도교육청,경기도광명교육지원청,37.4383574,126.8821568
구일고등학교,고등학교,1990-01-20,공립,본교,서울특별시 구로구 구일로 90-51,서울특별시교육청,서울특별시남부교육지원청,37.49350529,126.8746185
장림초등학교,초등학교,1966-03-01,공립,본교,부산광역시 사하구 장림번영로103번길 10,부산광역시교육청,부산광역시서부교육지원청,35.08217075,128.9765367
백신초등학교,초등학교,1994-06-01,공립,본교,경기도 고양시 일산동구 강촌로26번길 66,경기도교육청,경기도고양교육지원청,37.64426795,126.7811094
양정초등학교,초등학교,1955-04-01,공립,본교,부산광역시 부산진구 중앙대로 941,부산광역시교육청,부산광역시남부교육지원청,35.17404568,129.0718056
거제초등학교,초등학교,1908-04-08,공립,본교,경상남도 거제시 거제면 읍내로2길 20,경상남도교육청,경상남도거제교육지원청,34.85165504,128.5915861
능곡중학교,중학교,1955-09-01,공립,본교,경기도 고양시 덕양구 행당로11번길 48,경기도교육청,경기도고양교육지원청,37.62292202,126.8266419
장생포초등학교,초등학교,1946-03-31,공립,본교,울산광역시 남구 장생포고래로125번길 5,울산광역시교육청,울산광역시강남교육지원청,35.50371088,129.3679216
남성여자고등학교,고등학교,1941-05-01,사립,본교,부산광역시 중구 샘길 14,부산광역시교육청,부산광역시서부교육지원청,35.10571479,129.0344121
문촌초등학교,초등학교,1994-06-01,공립,본교,경기도 고양시 일산서구 주엽로 168,경기도교육청,경기도고양교육지원청,37.6733938,126.7604434
중산중학교,중학교,1995-09-01,공립,본교,경기도 고양시 일산동구 탄중로 361,경기도교육청,경기도고양교육지원청,37.69140401,126.7835017
감만중학교,중학교,1975-11-14,공립,본교,부산광역시 남구 홍곡로 313-14,부산광역시교육청,부산광역시남부교육지원청,35.12173218,129.0892609
금일동초등학교,초등학교,1946-11-04,공립,본교,전라남도 완도군 금일읍 월송1길 18-13,전라남도교육청,전라남도완도교육지원청,34.34049637,127.054975
대구유가초등학교,초등학교,1933-05-01,공립,본교,대구광역시 달성군 유가읍 테크노대로5길 34,대구광역시교육청,대구광역시달성교육지원청,35.6922735,128.4677385
성산중학교,중학교,1997-11-06,공립,본교,대구광역시 달서구 선원남로 174,대구광역시교육청,대구광역시남부교육지원청,35.85674219,128.5186821
주전초등학교,초등학교,1946-11-20,공립,본교,울산광역시 동구 동해안로 575,울산광역시교육청,울산광역시강북교육지원청,35.55800571,129.4568655
대구서변초등학교,초등학교,2004-03-01,공립,본교,대구광역시 북구 호국로43길 35,대구광역시교육청,대구광역시서부교육지원청,35.9207565,128.5950136
상일여자고등학교,고등학교,2008-05-08,공립,본교,광주광역시 서구 내방로 217,광주광역시교육청,광주광역시서부교육지원청,35.15878307,126.8644416
서변중학교,중학교,2005-03-01,공립,본교,대구광역시 북구 서변로21길 14,대구광역시교육청,대구광역시서부교육지원청,35.92636083,128.595695
내동중학교,중학교,1991-03-25,공립,본교,경상남도 김해시 평전로 135,경상남도교육청,경상남도김해교육지원청,35.24106571,128.8589326
은성중학교,중학교,1946-10-15,사립,본교,서울특별시 강남구 남부순환로359길 36,서울특별시교육청,서울특별시강남서초교육지원청,37.48837857,127.0352324
안양중앙초등학교,초등학교,1984-09-04,공립,본교,경기도 안양시 동안구 경수대로883번길 11,경기도교육청,경기도안양과천교육지원청,37.39553138,126.9377855
서천중학교,중학교,1946-12-12,공립,본교,충청남도 서천군 서천읍 충절로 97,충청남도교육청,충청남도서천교육지원청,36.07540844,126.6928792
동신중학교,중학교,1968-12-03,공립,본교,대전광역시 동구 동부로 56-22,대전광역시교육청,대전광역시동부교육지원청,36.3202964,127.4595324
서울오금초등학교,초등학교,1993-07-20,공립,본교,서울특별시 송파구 위례성대로22길 11,서울특별시교육청,서울특별시강동송파교육지원청,37.50886634,127.1323312
일산동고등학교,고등학교,1994-11-01,공립,본교,경기도 고양시 일산서구 탄현로 100,경기도교육청,경기도고양교육지원청,37.7006519,126.7686598
금천고등학교,고등학교,1973-03-05,공립,본교,경상북도 청도군 금천면 선암로 574-11,경상북도교육청,경상북도청도교육지원청,35.68807595,128.8947261
광영고등학교,고등학교,1985-02-01,사립,본교,서울특별시 양천구 남부순환로30길 17,서울특별시교육청,서울특별시강서양천교육지원청,37.5371981,126.8232759
광영여자고등학교,고등학교,1985-03-06,사립,본교,서울특별시 양천구 남부순환로30길 17,서울특별시교육청,서울특별시강서양천교육지원청,37.5371981,126.8232464
일동초등학교,초등학교,1999-09-01,공립,본교,광주광역시 북구 일곡택지로 45,광주광역시교육청,광주광역시동부교육지원청,35.20604838,126.8933313
진정초등학교,초등학교,1924-10-20,공립,본교,경상남도 하동군 금남면 진정1길 10,경상남도교육청,경상남도하동교육지원청,34.98533696,127.8246193
장승중학교,중학교,1985-04-24,공립,본교,서울특별시 동작구 장승배기로10가길 25,서울특별시교육청,서울특별시동작관악교육지원청,37.50314858,126.940834
정선초등학교,초등학교,1912-06-01,공립,본교,강원도 정선군 정선읍 비봉로 15,강원도교육청,강원도정선교육지원청,37.38121807,128.659662
남지고등학교,고등학교,1952-05-26,사립,본교,경상남도 창녕군 남지읍 남고길 11,경상남도교육청,경상남도창녕교육지원청,35.38646985,128.472249
금광초등학교조령분교장,초등학교,2000-09-01,공립,분교,경기도 안성시 금광면 사흥길 59,경기도교육청,경기도안성교육지원청,37.00114677,127.3578924
내혜홀초등학교,초등학교,2002-03-01,공립,본교,경기도 안성시 내혜홀3길 29,경기도교육청,경기도안성교육지원청,37.00628941,127.2653197
반곡초등학교,초등학교,2019-09-01,공립,본교,세종특별자치시 시청대로 468,세종특별자치시교육청,세종특별자치시교육청,36.50029158,127.3105162
신동초등학교,초등학교,1950-05-06,공립,본교,강원도 삼척시 신기면 강원남부로 2997,강원도교육청,강원도삼척교육지원청,37.35038522,129.0819292
숭의여자고등학교,고등학교,1903-10-31,사립,본교,서울특별시 동작구 여의대방로36길 79,서울특별시교육청,서울특별시동작관악교육지원청,37.50736414,126.9292433
송정서초등학교,초등학교,1945-11-10,공립,본교,광주광역시 광산구 상무대로 114,광주광역시교육청,광주광역시서부교육지원청,35.130463,126.788097
거진중학교,중학교,1961-04-15,공립,본교,강원도 고성군 거진읍 거평로 69,강원도교육청,강원도고성교육지원청,38.44714556,128.4481053
광명북초등학교,초등학교,1983-12-16,공립,본교,경기도 광명시 시청로138번길 8,경기도교육청,경기도광명교육지원청,37.48649649,126.8676338
광명서초등학교,초등학교,1984-09-07,공립,본교,경기도 광명시 너부대로 5,경기도교육청,경기도광명교육지원청,37.47847217,126.8470137
안면고등학교,고등학교,1972-12-06,공립,본교,충청남도 태안군 안면읍 조운막터길 73,충청남도교육청,충청남도태안교육지원청,36.50942768,126.3560096
광주대성초등학교,초등학교,1938-05-13,공립,본교,광주광역시 남구 서동로2번길 8,광주광역시교육청,광주광역시서부교육지원청,35.14462178,126.9054545
신촌초등학교,초등학교,1992-03-01,공립,본교,부산광역시 사하구 다대로135번길 30-21,부산광역시교육청,부산광역시서부교육지원청,35.09137471,128.9806632
동두천고등학교,고등학교,1963-01-29,사립,본교,경기도 동두천시 평화로2434번길 8,경기도교육청,경기도동두천양주교육지원청,37.90471471,127.0592539
청구고등학교,고등학교,1963-12-24,사립,본교,대구광역시 동구 국채보상로 827,대구광역시교육청,대구광역시동부교육지원청,35.86865525,128.6205716
강동중학교,중학교,2004-04-06,공립,본교,대구광역시 동구 동호로 112,대구광역시교육청,대구광역시동부교육지원청,35.86694911,128.729474
도학초등학교,초등학교,1961-08-07,공립,본교,강원도 고성군 토성면 무릉도원로 486,강원도교육청,강원도고성교육지원청,38.27189948,128.5009771
서울원묵초등학교,초등학교,1995-11-10,공립,본교,서울특별시 중랑구 숙선옹주로 109,서울특별시교육청,서울특별시동부교육지원청,37.61774881,127.0868142
화곡고등학교,고등학교,1978-01-30,사립,본교,서울특별시 강서구 강서로45길 69,서울특별시교육청,서울특별시강서양천교육지원청,37.54793611,126.8315357
동대전초등학교,초등학교,1985-09-10,공립,본교,대전광역시 동구 비래서로62번길 60,대전광역시교육청,대전광역시동부교육지원청,36.35219362,127.4493023
대전둔원초등학교,초등학교,1995-11-01,공립,본교,대전광역시 서구 대덕대로112번길 10,대전광역시교육청,대전광역시서부교육지원청,36.34309047,127.3749799
안성여자고등학교,고등학교,1943-04-30,공립,본교,경기도 안성시 남파로 73-10,경기도교육청,경기도안성교육지원청,37.01814312,127.257949
서울장평초등학교,초등학교,1980-04-04,공립,본교,서울특별시 동대문구 답십리로69길 27,서울특별시교육청,서울특별시동부교육지원청,37.57399502,127.073891
대구관남초등학교,초등학교,2001-03-01,공립,본교,대구광역시 북구 칠곡중앙대로91길 10,대구광역시교육청,대구광역시서부교육지원청,35.93683639,128.5477779
경북조리과학고등학교,고등학교,1974-01-05,공립,본교,경상북도 문경시 문경읍 향교길 20,경상북도교육청,경상북도문경교육지원청,36.73901645,128.1145085
군산금광초등학교,초등학교,1953-04-29,공립,본교,전라북도 군산시 대학로 100,전라북도교육청,전라북도군산교육지원청,35.98219065,126.7062198
갈매중학교,중학교,2016-06-01,공립,본교,경기도 구리시 갈매순환로 121,경기도교육청,경기도구리남양주교육지원청,37.63093445,127.1197809
사직중학교,중학교,1981-03-05,공립,본교,부산광역시 동래구 쇠미로51번길 30,부산광역시교육청,부산광역시동래교육지원청,35.1994721,129.0514137
저청초등학교,초등학교,1950-06-01,공립,본교,제주특별자치도 제주시 한경면 중산간서로 3591,제주특별자치도교육청,제주특별자치도제주시교육지원청,33.32627333,126.2512136
서울로봇고등학교,고등학교,1994-01-04,공립,본교,서울특별시 강남구 광평로20길 63,서울특별시교육청,서울특별시강남서초교육지원청,37.48073174,127.0845761
하안초등학교,초등학교,1988-02-06,공립,본교,경기도 광명시 안현로 16,경기도교육청,경기도광명교육지원청,37.46306043,126.873989
지산중학교,중학교,2002-03-01,공립,본교,경기도 파주시 미래로 532,경기도교육청,경기도파주교육지원청,37.72474308,126.7523534
인천해원중학교,중학교,2012-03-01,공립,본교,인천광역시 서구 청라한내로 21,인천광역시교육청,인천광역시서부교육지원청,37.52723444,126.6280402
장마초등학교,초등학교,1927-12-05,공립,본교,경상남도 창녕군 장마면 강리길 61,경상남도교육청,경상남도창녕교육지원청,35.45984075,128.4765061
삼척마이스터고등학교,고등학교,1956-02-28,공립,본교,강원도 삼척시 근덕면 삼척로 3700,강원도교육청,강원도삼척교육지원청,37.38492867,129.2243017
단국대학교사범대학부속중학교,중학교,1947-11-03,사립,본교,서울특별시 강남구 도곡로64길 21,서울특별시교육청,서울특별시강남서초교육지원청,37.49561749,127.0577682
서울대곡초등학교,초등학교,1982-04-02,공립,본교,서울특별시 강남구 남부순환로 3022,서울특별시교육청,서울특별시강남서초교육지원청,37.49471064,127.0650265
동해중앙초등학교,초등학교,1941-07-01,공립,본교,강원도 동해시 천곡로 35,강원도교육청,강원도동해교육지원청,37.52531981,129.1084972
서울정곡초등학교,초등학교,1993-09-23,공립,본교,서울특별시 강서구 방화대로50길 22,서울특별시교육청,서울특별시강서양천교육지원청,37.57695491,126.8189328
용성초등학교,초등학교,1922-04-24,공립,본교,경상북도 경산시 용성면 원효로 1405,경상북도교육청,경상북도경산교육지원청,35.79327235,128.8746678
매천고등학교,고등학교,2008-03-01,공립,본교,대구광역시 북구 매전로 70,대구광역시교육청,대구광역시서부교육지원청,35.91159433,128.5472371
동주여자중학교,중학교,1919-04-26,사립,본교,부산광역시 사하구 사리로8번길 28,부산광역시교육청,부산광역시서부교육지원청,35.10077153,129.0013638
한국조리과학고등학교,고등학교,1998-10-27,사립,본교,경기도 시흥시 금오로 640,경기도교육청,경기도시흥교육지원청,37.45851798,126.8323613
학남중학교,중학교,2002-03-01,공립,본교,대구광역시 북구 학남로 83,대구광역시교육청,대구광역시서부교육지원청,35.94553027,128.570413
나성중학교,중학교,2021-03-01,공립,본교,세종특별자치시 갈매로 298,세종특별자치시교육청,세종특별자치시교육청,36.49085227,127.2639769
창원동중학교,중학교,2009-03-01,공립,본교,경상남도 창원시 의창구 동읍로 189,경상남도교육청,경상남도창원교육지원청,35.29100882,128.6749409
구암고등학교,고등학교,1997-05-19,공립,본교,대구광역시 북구 태암남로11길 7,대구광역시교육청,대구광역시서부교육지원청,35.92623822,128.553221
동해상업고등학교,고등학교,1970-05-25,공립,본교,강원도 동해시 느릅재길 65,강원도교육청,강원도동해교육지원청,37.54320424,129.0941785
송현여자고등학교,고등학교,1979-11-21,사립,본교,대구광역시 달서구 송현로 156,대구광역시교육청,대구광역시남부교육지원청,35.83112106,128.5462157
상인중학교,중학교,1999-10-04,공립,본교,대구광역시 달서구 상인로 34,대구광역시교육청,대구광역시남부교육지원청,35.81135533,128.5501219
해룡중학교,중학교,1971-03-05,사립,본교,전라남도 영광군 영광읍 중앙로 120,전라남도교육청,전라남도영광교육지원청,35.26843387,126.513448
활천중학교,중학교,2009-03-01,공립,본교,경상남도 김해시 분성로 707,경상남도교육청,경상남도김해교육지원청,35.23307213,128.9212551
서울안천초등학교,초등학교,1991-10-04,공립,본교,서울특별시 금천구 한내로 69-16,서울특별시교육청,서울특별시남부교육지원청,37.45874564,126.88839
속사초등학교,초등학교,1942-07-15,공립,본교,강원도 평창군 용평면 운두령로 100,강원도교육청,강원도평창교육지원청,37.64646041,128.4926046
서울대진초등학교,초등학교,1992-10-26,공립,본교,서울특별시 강남구 개포로109길 74,서울특별시교육청,서울특별시강남서초교육지원청,37.49701211,127.0780425
관동중학교,중학교,1983-06-17,공립,본교,강원도 강릉시 하슬라로 20,강원도교육청,강원도강릉교육지원청,37.7551977,128.8795637
내황초등학교,초등학교,1991-06-07,공립,본교,울산광역시 중구 내황13길 53,울산광역시교육청,울산광역시강북교육지원청,35.55231275,129.3489924
주문진초등학교삼덕분교장,초등학교,1957-05-25,공립,분교,강원도 강릉시 주문진읍 신리천로 410-8,강원도교육청,강원도강릉교육지원청,37.87867258,128.7885975
창덕중학교,중학교,1953-04-15,공립,본교,경상남도 창원시 의창구 동읍 의창대로900번길 12,경상남도교육청,경상남도창원교육지원청,35.27744139,128.6888058
서울오륜초등학교,초등학교,1989-04-19,공립,본교,서울특별시 송파구 양재대로 1196,서울특별시교육청,서울특별시강동송파교육지원청,37.51242411,127.1345763
서울개명초등학교,초등학교,1984-05-04,공립,본교,서울특별시 구로구 개봉로1다길 16-9,서울특별시교육청,서울특별시남부교육지원청,37.48303904,126.8509791
서울신강초등학교,초등학교,1984-06-01,공립,본교,서울특별시 양천구 중앙로55길 72,서울특별시교육청,서울특별시강서양천교육지원청,37.52584419,126.8422639
해동중학교,중학교,1946-04-08,사립,본교,부산광역시 영도구 절영로490번길 8-22,부산광역시교육청,부산광역시서부교육지원청,35.06967072,129.069638
서울가산초등학교,초등학교,1984-06-14,공립,본교,서울특별시 금천구 남부순환로 1304-11,서울특별시교육청,서울특별시남부교육지원청,37.47816515,126.8963297
동항중학교,중학교,1980-02-14,공립,본교,부산광역시 남구 양지골로 248,부산광역시교육청,부산광역시남부교육지원청,35.11907295,129.0854314
대병중학교,중학교,1956-02-13,사립,본교,경상남도 합천군 대병면 신성동길 53-16,경상남도교육청,경상남도합천교육지원청,35.51841197,128.0116543
대구침산초등학교,초등학교,1955-03-28,공립,본교,대구광역시 북구 성북로 25,대구광역시교육청,대구광역시서부교육지원청,35.89111551,128.585073
양정고등학교,고등학교,1987-01-12,사립,본교,부산광역시 부산진구 양정로 46,부산광역시교육청,부산광역시남부교육지원청,35.16990941,129.0750869
대진초등학교,초등학교,1956-06-30,공립,본교,경상남도 김해시 진례면 고모로327번길 19,경상남도교육청,경상남도김해교육지원청,35.25777272,128.7640203
동궁초등학교,초등학교,1999-09-01,공립,본교,부산광역시 사상구 엄궁로 70-7,부산광역시교육청,부산광역시북부교육지원청,35.1234597,128.9748133
북면초등학교,초등학교,1924-05-01,공립,본교,경상남도 창원시 의창구 북면 동전로110번길 36,경상남도교육청,경상남도창원교육지원청,35.30529194,128.6000619
태랑중학교,중학교,2002-05-07,공립,본교,서울특별시 노원구 화랑로51나길 51,서울특별시교육청,서울특별시북부교육지원청,37.62698409,127.0913718
동평여자중학교,중학교,1980-01-24,공립,본교,부산광역시 부산진구 백양순환로119번길 12-39,부산광역시교육청,부산광역시남부교육지원청,35.17040463,129.0435305
여수종고초등학교,초등학교,1967-03-01,공립,본교,전라남도 여수시 공화북6길 52,전라남도교육청,전라남도여수교육지원청,34.7498493,127.7436519
서석초등학교,초등학교,1926-12-10,공립,본교,강원도 홍천군 서석면 풍암길 58,강원도교육청,강원도홍천교육지원청,37.71239602,128.1882303
서부산공업고등학교,고등학교,1996-10-04,공립,본교,부산광역시 사상구 백양대로768번길 115,부산광역시교육청,부산광역시북부교육지원청,35.17327691,128.9933191
호남원예고등학교,고등학교,1951-08-31,공립,본교,전라남도 나주시 금천면 영산로 5691,전라남도교육청,전라남도나주교육지원청,35.03822307,126.751088
신목중학교,중학교,1986-05-12,공립,본교,서울특별시 양천구 목동중앙로 88,서울특별시교육청,서울특별시강서양천교육지원청,37.53702399,126.8730725
부곡중학교,중학교,1969-11-10,공립,본교,부산광역시 금정구 동부곡로15번길 102-20,부산광역시교육청,부산광역시동래교육지원청,35.23143656,129.0961977
양진중학교,중학교,2008-03-01,공립,본교,경기도 안성시 공도읍 진사1길 37,경기도교육청,경기도안성교육지원청,36.98582893,127.1438654
영남고등학교,고등학교,1935-04-18,사립,본교,대구광역시 달서구 월곡로 300,대구광역시교육청,대구광역시남부교육지원청,35.82076999,128.5363043
한림중학교,중학교,1954-10-28,사립,본교,경상남도 김해시 한림면 한림로365번길 33,경상남도교육청,경상남도김해교육지원청,35.32172162,128.7996056
영락고등학교,고등학교,1955-03-01,사립,본교,서울특별시 관악구 청룡16길 25,서울특별시교육청,서울특별시동작관악교육지원청,37.47654259,126.9454164
오주중학교,중학교,1984-09-01,공립,본교,서울특별시 송파구 동남로 281,서울특별시교육청,서울특별시강동송파교육지원청,37.50150661,127.1362653
남이초등학교,초등학교,1921-10-30,공립,본교,충청북도 청주시 서원구 남이면 대련길 61,충청북도교육청,충청북도청주교육지원청,36.5770968,127.4542168
심인중학교,중학교,1953-06-05,사립,본교,대구광역시 달성군 다사읍 대실역남로1길 21,대구광역시교육청,대구광역시달성교육지원청,35.85308854,128.4678979
대구대실초등학교,초등학교,2016-06-07,공립,본교,대구광역시 달성군 다사읍 대실역남로1길 31,대구광역시교육청,대구광역시달성교육지원청,35.85308854,128.4678979
용산중학교,중학교,1984-12-18,공립,본교,대구광역시 달서구 와룡로45길 72,대구광역시교육청,대구광역시남부교육지원청,35.85416455,128.5323609
송정중앙초등학교,초등학교,1967-10-14,공립,본교,광주광역시 광산구 어등대로653번길 90,광주광역시교육청,광주광역시서부교육지원청,35.14784781,126.795011
두원공업고등학교,고등학교,1990-10-10,사립,본교,경기도 안성시 미양면 미양로 727,경기도교육청,경기도안성교육지원청,36.99677795,127.2417999
은광여자고등학교,고등학교,1946-10-15,사립,본교,서울특별시 강남구 남부순환로359길 36,서울특별시교육청,서울특별시강남서초교육지원청,37.48837857,127.0352324
부곡여자중학교,중학교,1981-10-14,공립,본교,부산광역시 금정구 가마실로 56,부산광역시교육청,부산광역시동래교육지원청,35.22332989,129.0953419
대구옥산초등학교,초등학교,1956-07-04,공립,본교,대구광역시 북구 칠성시장로23길 55,대구광역시교육청,대구광역시서부교육지원청,35.8808955,128.5978756
한바다중학교,중학교,1969-10-10,공립,본교,부산광역시 수영구 광안로21번가길 57,부산광역시교육청,부산광역시해운대교육지원청,35.15729241,129.1176119
서울가주초등학교,초등학교,1996-11-08,공립,본교,서울특별시 송파구 오금로40길 37,서울특별시교육청,서울특별시강동송파교육지원청,37.49656722,127.1292617
선덕고등학교,고등학교,1983-03-05,사립,본교,서울특별시 도봉구 시루봉로 53,서울특별시교육청,서울특별시북부교육지원청,37.65634868,127.0268766
상일초등학교,초등학교,1995-09-01,공립,본교,경상남도 창원시 마산회원구 내서읍 광려천서로 21,경상남도교육청,경상남도창원교육지원청,35.24457516,128.5069525
입암초등학교,초등학교,1933-04-05,공립,본교,경상북도 영양군 입암면 입암로 162,경상북도교육청,경상북도영양교육지원청,36.59971644,129.0873689
대전변동중학교,중학교,1984-03-08,공립,본교,대전광역시 서구 도산로181번길 39,대전광역시교육청,대전광역시서부교육지원청,36.3247386,127.3757901
진주외국어고등학교,고등학교,1970-12-26,사립,본교,경상남도 진주시 일반성면 동부로 2014-6,경상남도교육청,경상남도진주교육지원청,35.16965618,128.281668
용남고등학교,고등학교,1991-03-09,공립,본교,충청남도 계룡시 신도안면 신도안1길 32,충청남도교육청,충청남도논산계룡교육지원청,36.29430921,127.2447646
장곡중학교,중학교,2001-04-04,공립,본교,경상북도 칠곡군 석적읍 남중리8길 13,경상북도교육청,경상북도칠곡교육지원청,36.07345548,128.4150883
대정중학교,중학교,1946-11-08,공립,본교,제주특별자치도 서귀포시 대정읍 비행장로 18,제주특별자치도교육청,제주특별자치도서귀포시교육지원청,33.21996162,126.2532327
안천중학교,중학교,1991-06-05,공립,본교,서울특별시 금천구 한내로 69-44,서울특별시교육청,서울특별시남부교육지원청,37.45952426,126.8874988
기린중학교,중학교,1953-07-02,공립,본교,강원도 인제군 기린면 창암길 20,강원도교육청,강원도인제교육지원청,37.94620605,128.31169
한별중학교,중학교,2014-09-01,공립,본교,경기도 남양주시 별내4로 70,경기도교육청,경기도구리남양주교육지원청,37.64880857,127.1188629
청암초등학교,초등학교,2001-09-01,공립,본교,경기도 파주시 청암로 16,경기도교육청,경기도파주교육지원청,37.73087635,126.7378507
동암초등학교,초등학교,2005-09-01,공립,본교,경기도 의정부시 장곡로 206,경기도교육청,경기도의정부교육지원청,37.72314428,127.0542833
동오초등학교,초등학교,1996-03-01,공립,본교,경기도 의정부시 추동로23번길 10,경기도교육청,경기도의정부교육지원청,37.74456302,127.0584382
담양동초등학교,초등학교,1908-03-15,공립,본교,전라남도 담양군 담양읍 추성로 1323,전라남도교육청,전라남도담양교육지원청,35.32030646,126.983573
인천양촌초등학교,초등학교,2007-03-01,공립,본교,인천광역시 계양구 장제로 954,인천광역시교육청,인천광역시서부교육지원청,37.5506269,126.7443725
회천중학교,중학교,2006-03-01,공립,본교,경기도 양주시 고암길 77,경기도교육청,경기도동두천양주교육지원청,37.83264346,127.0709384
답내초등학교,초등학교,1946-04-15,공립,본교,경기도 남양주시 화도읍 경춘로2347번길 44-7,경기도교육청,경기도구리남양주교육지원청,37.66239095,127.3473013
창신초등학교,초등학교,1967-03-02,공립,본교,경기도 평택시 오성면 창신뜰길 138,경기도교육청,경기도평택교육지원청,37.00430891,127.0067541
광탄중학교,중학교,1966-12-19,사립,본교,경기도 파주시 광탄면 혜음로 1128,경기도교육청,경기도파주교육지원청,37.78194408,126.8473214
고양신일초등학교,초등학교,1995-06-01,공립,본교,경기도 고양시 일산서구 강선로 183,경기도교육청,경기도고양교육지원청,37.67954962,126.7708302
파주대원초등학교,초등학교,2001-03-01,공립,본교,경기도 파주시 조리읍 대원로 30,경기도교육청,경기도파주교육지원청,37.7273473,126.8196844
금촌고등학교,고등학교,2005-03-01,공립,본교,경기도 파주시 쇠재1길 18,경기도교육청,경기도파주교육지원청,37.75019671,126.7787647
일산중학교,중학교,1953-04-23,공립,본교,경기도 고양시 일산서구 원일로 53,경기도교육청,경기도고양교육지원청,37.68897122,126.7683384
파주송화초등학교,초등학교,2001-09-01,공립,본교,경기도 파주시 송화로 39,경기도교육청,경기도파주교육지원청,37.77459686,126.7792304
고양초등학교,초등학교,1909-05-01,공립,본교,경기도 고양시 덕양구 혜음로13번길 22-7,경기도교육청,경기도고양교육지원청,37.70312414,126.899631
풍산초등학교,초등학교,2002-03-02,공립,본교,경기도 고양시 일산동구 숲속마을로 51,경기도교육청,경기도고양교육지원청,37.66687039,126.7967057
덕도초등학교,초등학교,1971-03-01,공립,본교,경기도 양주시 광적면 광적로224번길 122,경기도교육청,경기도동두천양주교육지원청,37.8411578,126.9776373
금호초등학교,초등학교,1994-03-30,공립,본교,광주광역시 서구 금부로95번길 26-11,광주광역시교육청,광주광역시서부교육지원청,35.14277758,126.859228
하남중앙초등학교,초등학교,1990-04-06,공립,본교,광주광역시 광산구 산정로6번길 21-20,광주광역시교육청,광주광역시서부교육지원청,35.16870051,126.8049815
오륙도초등학교,초등학교,2008-09-01,공립,본교,부산광역시 남구 오륙도로 57,부산광역시교육청,부산광역시남부교육지원청,35.10423905,129.1161864
물야중학교,중학교,1971-03-22,공립,본교,경상북도 봉화군 물야면 오록4길 11,경상북도교육청,경상북도봉화교육지원청,36.97811734,128.7387726
진장중학교,중학교,2004-03-01,공립,본교,울산광역시 북구 진장10길 24,울산광역시교육청,울산광역시강북교육지원청,35.56362477,129.3583245
후포동부초등학교,초등학교,1960-04-01,공립,본교,경상북도 울진군 후포면 후포6길 75,경상북도교육청,경상북도울진교육지원청,36.68634553,129.4631155
후포중학교,중학교,1955-05-13,공립,본교,경상북도 울진군 후포면 후포로 41,경상북도교육청,경상북도울진교육지원청,36.68031187,129.4459375
정발중학교,중학교,1995-05-01,공립,본교,경기도 고양시 일산동구 정발산로 115,경기도교육청,경기도고양교육지원청,37.6594744,126.7807456
대송중학교,중학교,2004-03-01,공립,본교,경기도 고양시 일산서구 송포로 49,경기도교육청,경기도고양교육지원청,37.67086006,126.7308676
장파초등학교,초등학교,1963-10-02,공립,본교,경기도 파주시 파평면 장마루5길 11,경기도교육청,경기도파주교육지원청,37.9413673,126.837545
삼일여자고등학교,고등학교,1993-05-31,사립,본교,울산광역시 남구 두왕로190번길 59,울산광역시교육청,울산광역시강남교육지원청,35.51593104,129.316772
영해중학교,중학교,1951-10-30,공립,본교,경상북도 영덕군 영해면 예주길 135,경상북도교육청,경상북도영덕교육지원청,36.54233749,129.4132252
동광초등학교,초등학교,2001-03-05,사립,본교,서울특별시 금천구 탑골로10길 45,서울특별시교육청,서울특별시남부교육지원청,37.45199688,126.9158199
대화중학교,중학교,1995-06-05,공립,본교,경기도 고양시 일산서구 고양대로 348,경기도교육청,경기도고양교육지원청,37.67381374,126.7444769
고양송산중학교,중학교,2006-03-01,공립,본교,경기도 고양시 일산서구 가좌2로 15,경기도교육청,경기도고양교육지원청,37.68786495,126.7220035
상탄초등학교,초등학교,1995-03-01,공립,본교,경기도 고양시 일산서구 현중로 47,경기도교육청,경기도고양교육지원청,37.6951347,126.7666945
진건고등학교,고등학교,2001-01-05,공립,본교,경기도 남양주시 진건읍 진건오남로 369-1,경기도교육청,경기도구리남양주교육지원청,37.67452754,127.1977814
대구신당초등학교,초등학교,1994-09-01,공립,본교,대구광역시 달서구 서당로 14,대구광역시교육청,대구광역시남부교육지원청,35.85329484,128.4962674
대구용전초등학교,초등학교,1999-02-08,공립,본교,대구광역시 달서구 용산로 260,대구광역시교육청,대구광역시남부교육지원청,35.86109075,128.5312139
울산경의고등학교,고등학교,1966-03-10,사립,본교,울산광역시 울주군 상북면 상북로 248,울산광역시교육청,울산광역시강남교육지원청,35.58852032,129.0932748
외북초등학교,초등학교,1946-12-01,공립,본교,경기도 포천시 신북면 포천로 2199,경기도교육청,경기도포천교육지원청,37.94691178,127.1873126
시흥도원초등학교,초등학교,2003-04-01,공립,본교,경기도 시흥시 수인로3413번길 34,경기도교육청,경기도시흥교육지원청,37.4401141,126.7779868
시흥매화중학교,중학교,2008-03-01,공립,본교,경기도 시흥시 매화로 71,경기도교육청,경기도시흥교육지원청,37.41319048,126.8159638
경북드론고등학교,고등학교,1993-04-01,공립,본교,경상북도 청도군 풍각면 헐티로 185,경상북도교육청,경상북도청도교육지원청,35.64122493,128.6207782
서울대학교사범대학부설초등학교,초등학교,1946-08-22,국립,본교,서울특별시 종로구 대학로 64,서울특별시교육청,서울특별시중부교육지원청,37.5775997,127.0042955
대전둔원고등학교,고등학교,2003-03-20,공립,본교,대전광역시 서구 대덕대로 101,대전광역시교육청,대전광역시서부교육지원청,36.34283137,127.3733872
대전둔원중학교,중학교,1995-03-04,공립,본교,대전광역시 서구 괴정로11번길 73,대전광역시교육청,대전광역시서부교육지원청,36.34273256,127.3766789
울진초등학교,초등학교,1912-05-25,공립,본교,경상북도 울진군 울진읍 울진중앙로 143,경상북도교육청,경상북도울진교육지원청,36.99559263,129.4005924
유가중학교,중학교,2017-03-01,공립,본교,대구광역시 달성군 유가읍 테크노대로5길 20,대구광역시교육청,대구광역시달성교육지원청,35.69112229,128.4676564
신복초등학교,초등학교,2005-03-01,공립,본교,울산광역시 남구 신복로 74,울산광역시교육청,울산광역시강남교육지원청,35.55026991,129.2539634
서울염경초등학교,초등학교,2005-10-26,공립,본교,서울특별시 강서구 양천로69길 49,서울특별시교육청,서울특별시강서양천교육지원청,37.55500067,126.8712046
역삼중학교,중학교,1984-04-06,공립,본교,서울특별시 강남구 도곡로43길 10,서울특별시교육청,서울특별시강남서초교육지원청,37.49593388,127.0488444
경북공업고등학교,고등학교,1955-04-20,사립,본교,대구광역시 중구 남산로 20,대구광역시교육청,대구광역시동부교육지원청,35.85851368,128.5835008
주원초등학교,초등학교,2007-09-01,공립,본교,경기도 양주시 고암길 242,경기도교육청,경기도동두천양주교육지원청,37.83553577,127.0728956
김화중학교,중학교,1955-08-08,공립,본교,강원도 철원군 서면 와수1로 72,강원도교육청,강원도철원교육지원청,38.24340756,127.4349464
마산가포고등학교,고등학교,1996-02-23,공립,본교,경상남도 창원시 마산합포구 가포로 262,경상남도교육청,경상남도창원교육지원청,35.16749022,128.5711686
농서초등학교,초등학교,1945-06-01,공립,본교,울산광역시 북구 가재길 57,울산광역시교육청,울산광역시강북교육지원청,35.6316884,129.3299606
신일중학교,중학교,1994-05-01,공립,본교,경기도 고양시 일산서구 고봉로 177,경기도교육청,경기도고양교육지원청,37.67661384,126.7741412
팔달중학교,중학교,1998-11-21,공립,본교,대구광역시 북구 매천로2길 19-22,대구광역시교육청,대구광역시서부교육지원청,35.89894723,128.5449124
덕이중학교,중학교,2011-06-05,공립,본교,경기도 고양시 일산서구 하이파크3로 122,경기도교육청,경기도고양교육지원청,37.70291507,126.7536353
원중초등학교,초등학교,1967-03-02,공립,본교,경기도 고양시 일산동구 위시티3로 67,경기도교육청,경기도고양교육지원청,37.6751316,126.814731
가온초등학교,초등학교,2011-03-23,공립,본교,경기도 파주시 가온로 134,경기도교육청,경기도파주교육지원청,37.72068103,126.7472802
갈현초등학교,초등학교,1949-05-20,공립,본교,경기도 파주시 탄현면 평화로591번길 76,경기도교육청,경기도파주교육지원청,37.77206767,126.7168235
검산초등학교,초등학교,1958-04-07,공립,본교,경기도 파주시 검산로 10,경기도교육청,경기도파주교육지원청,37.77641218,126.7386514
송포초등학교,초등학교,1935-01-25,공립,본교,경기도 고양시 일산서구 송산로 379,경기도교육청,경기도고양교육지원청,37.68540122,126.7205405
백양초등학교,초등학교,1995-12-01,공립,본교,경기도 고양시 덕양구 화신로 238,경기도교육청,경기도고양교육지원청,37.63225803,126.8361005
고양제일중학교,중학교,1971-10-15,사립,본교,경기도 고양시 덕양구 통일로 820,경기도교육청,경기도고양교육지원청,37.69052753,126.8592787
인천가원초등학교,초등학교,2015-09-01,공립,본교,인천광역시 서구 청중로478번길 6,인천광역시교육청,인천광역시서부교육지원청,37.52921844,126.6641213
한빛중학교,중학교,2009-09-01,공립,본교,경기도 파주시 한빛로 56,경기도교육청,경기도파주교육지원청,37.71464292,126.7548813
울진고등학교,고등학교,1951-10-19,공립,본교,경상북도 울진군 울진읍 연지길 7,경상북도교육청,경상북도울진교육지원청,36.99735629,129.4058736
덕현중학교,중학교,2006-03-01,공립,본교,경기도 양주시 고읍로35번길 21,경기도교육청,경기도동두천양주교육지원청,37.80025944,127.0800863
하늘초등학교,초등학교,2007-09-01,공립,본교,경기도 고양시 일산동구 하늘마을1로 46,경기도교육청,경기도고양교육지원청,37.67735902,126.7898583
대구동산초등학교,초등학교,1982-09-01,공립,본교,대구광역시 수성구 동대구로42길 29,대구광역시교육청,대구광역시동부교육지원청,35.84914164,128.628072
청운초등학교,초등학교,1924-04-18,공립,본교,경기도 양평군 청운면 용두로156번길 30,경기도교육청,경기도양평교육지원청,37.55457051,127.713771
능곡고등학교,고등학교,1962-03-01,공립,본교,경기도 고양시 덕양구 지도로 76,경기도교육청,경기도고양교육지원청,37.62396116,126.8255017
광주효광중학교,중학교,1972-03-09,공립,본교,광주광역시 서구 쌍촌로15번길 8,광주광역시교육청,광주광역시서부교육지원청,35.14712562,126.8634316
근덕중학교,중학교,1951-10-17,공립,본교,강원도 삼척시 근덕면 삼척로 3700,강원도교육청,강원도삼척교육지원청,37.38492867,129.2243017
만정중학교,중학교,2011-03-01,공립,본교,경기도 안성시 공도읍 송원길 21-6,경기도교육청,경기도안성교육지원청,37.0086015,127.1729856
토당초등학교,초등학교,2006-03-01,공립,본교,경기도 고양시 덕양구 행신로 90,경기도교육청,경기도고양교육지원청,37.61719519,126.8262942
금남초등학교,초등학교,1966-03-10,공립,본교,경기도 남양주시 화도읍 북한강로 1506,경기도교육청,경기도구리남양주교육지원청,37.64368647,127.3620146
여수웅천중학교,중학교,2015-04-20,공립,본교,전라남도 여수시 웅천북로 24,전라남도교육청,전라남도여수교육지원청,34.75103353,127.6749912
원흥초등학교,초등학교,2020-09-01,공립,본교,경기도 고양시 덕양구 원흥1로 26,경기도교육청,경기도고양교육지원청,37.65103799,126.8687604
왜관동부초등학교,초등학교,1972-12-31,공립,본교,경상북도 칠곡군 왜관읍 평장3길 31-4,경상북도교육청,경상북도칠곡교육지원청,35.98566413,128.4080264
죽변초등학교,초등학교,1937-09-25,공립,본교,경상북도 울진군 죽변면 죽변3길 17,경상북도교육청,경상북도울진교육지원청,37.06368803,129.4220502
안산동산고등학교,고등학교,1994-12-10,사립,본교,경기도 안산시 상록구 충장로 56,경기도교육청,경기도안산교육지원청,37.28686736,126.8585591
안산부곡중학교,중학교,1995-03-01,공립,본교,경기도 안산시 상록구 부곡로 15,경기도교육청,경기도안산교육지원청,37.32381712,126.8587264
동남고등학교,고등학교,1959-03-21,사립,본교,경기도 포천시 소흘읍 솔모루로3번길 69,경기도교육청,경기도포천교육지원청,37.82695298,127.1356234
성서고등학교,고등학교,1999-02-25,공립,본교,대구광역시 달서구 선원로 221,대구광역시교육청,대구광역시남부교육지원청,35.8598709,128.516192
경기영상과학고등학교,고등학교,1997-03-01,공립,본교,경기도 고양시 일산서구 강선로 8,경기도교육청,경기도고양교육지원청,37.66540546,126.7621008
흑산초등학교홍도분교장,초등학교,1949-03-15,공립,분교,전라남도 신안군 흑산면 홍도1길 53,전라남도교육청,전라남도신안교육지원청,34.68544984,125.1923169
인천남동고등학교,고등학교,2008-03-01,공립,본교,인천광역시 남동구 은봉로 283,인천광역시교육청,인천광역시동부교육지원청,37.4060269,126.7215164
석적고등학교,고등학교,2013-03-01,공립,본교,경상북도 칠곡군 석적읍 동중리1길 65-20,경상북도교육청,경상북도칠곡교육지원청,36.08165963,128.4184575
저동초등학교,초등학교,1994-10-24,공립,본교,경기도 고양시 일산동구 대산로11번길 37,경기도교육청,경기도고양교육지원청,37.66801128,126.7738784
광사초등학교,초등학교,2010-03-01,공립,본교,경기도 양주시 고읍남로191번길 12,경기도교육청,경기도동두천양주교육지원청,37.79145616,127.0838384
문수초등학교,초등학교,1948-09-01,공립,본교,울산광역시 울주군 청량읍 청송길 8,울산광역시교육청,울산광역시강남교육지원청,35.51887681,129.2406303
삼계초등학교,초등학교,1967-03-02,공립,본교,경상남도 창원시 마산회원구 내서읍 삼계로 36,경상남도교육청,경상남도창원교육지원청,35.23266923,128.5004328
일산중학교,중학교,1985-01-31,공립,본교,울산광역시 동구 진성15길 15,울산광역시교육청,울산광역시강북교육지원청,35.50582768,129.4227382
일산초등학교,초등학교,1982-03-02,공립,본교,울산광역시 동구 진성12길 11,울산광역시교육청,울산광역시강북교육지원청,35.50495501,129.4253291
송진초등학교,초등학교,1946-07-01,공립,본교,경상남도 밀양시 삼랑진읍 삼랑진로 206,경상남도교육청,경상남도밀양교육지원청,35.39488596,128.8363389
노진초등학교,초등학교,1968-03-01,공립,본교,경기도 화성시 장안면 화곡로 166,경기도교육청,경기도화성오산교육지원청,37.05160265,126.8091907
백신중학교,중학교,1992-09-01,공립,본교,경기도 고양시 일산동구 강촌로 89,경기도교육청,경기도고양교육지원청,37.65133133,126.7831772
격동초등학교,초등학교,2001-10-21,공립,본교,울산광역시 남구 문수로 344번길 4,울산광역시교육청,울산광역시강남교육지원청,35.5342283,129.290212
광탄고등학교,고등학교,1975-11-14,사립,본교,경기도 파주시 광탄면 혜음로1128번길 16,경기도교육청,경기도파주교육지원청,37.78343723,126.848919
다솜초등학교,초등학교,2006-09-01,공립,본교,경기도 고양시 일산동구 숲속마을로 139,경기도교육청,경기도고양교육지원청,37.67250709,126.7965778
일산국제컨벤션고등학교,고등학교,1994-03-01,공립,본교,경기도 고양시 일산서구 고봉로 133,경기도교육청,경기도고양교육지원청,37.67288456,126.771578
예당중학교,중학교,2011-05-15,공립,본교,경기도 화성시 노작로 226-35,경기도교육청,경기도화성오산교육지원청,37.20806531,127.0792785
언양초등학교,초등학교,1913-05-01,공립,본교,울산광역시 울주군 언양읍 북문8길 49,울산광역시교육청,울산광역시강남교육지원청,35.57233733,129.1259078
덕계초등학교,초등학교,2004-03-01,공립,본교,경기도 양주시 평화로1489번길 29,경기도교육청,경기도동두천양주교육지원청,37.82302548,127.0474801
매천중학교,중학교,2008-03-01,공립,본교,대구광역시 북구 매전로 56,대구광역시교육청,대구광역시서부교육지원청,35.91048477,128.547327
휘경공업고등학교,고등학교,1998-07-02,공립,본교,서울특별시 동대문구 겸재로 21,서울특별시교육청,서울특별시동부교육지원청,37.58521558,127.0697283
평해정보고등학교,고등학교,1976-03-26,공립,본교,경상북도 울진군 평해읍 평해7길 61-3,경상북도교육청,경상북도울진교육지원청,36.72891434,129.4429677
학성여자고등학교,고등학교,1983-03-07,공립,본교,울산광역시 중구 화합로 466,울산광역시교육청,울산광역시강북교육지원청,35.56663235,129.3349493
대구관음초등학교,초등학교,1993-03-02,공립,본교,대구광역시 북구 관음동로17길 16,대구광역시교육청,대구광역시서부교육지원청,35.93992241,128.5471137
대구이곡초등학교,초등학교,1997-11-01,공립,본교,대구광역시 달서구 선원남로 120,대구광역시교육청,대구광역시남부교육지원청,35.85684549,128.5137308
대구성곡초등학교,초등학교,2002-04-15,공립,본교,대구광역시 달서구 선원남로 127,대구광역시교육청,대구광역시남부교육지원청,35.85809784,128.5135151
동명초등학교,초등학교,1934-03-30,공립,본교,경상북도 칠곡군 동명면 금암동석3길 5,경상북도교육청,경상북도칠곡교육지원청,35.98706031,128.5544814
동두천송내초등학교,초등학교,2003-03-01,공립,본교,경기도 동두천시 중앙로 52,경기도교육청,경기도동두천양주교육지원청,37.88614275,127.0525334
대곡초등학교,초등학교,1974-03-01,공립,본교,경기도 고양시 덕양구 대주로 138-50,경기도교육청,경기도고양교육지원청,37.64115655,126.8127529
백마중학교,중학교,1993-06-01,공립,본교,경기도 고양시 일산동구 강촌로 189,경기도교육청,경기도고양교육지원청,37.65512778,126.7933085
인천백석초등학교,초등학교,1967-12-13,공립,본교,인천광역시 서구 청마로 55,인천광역시교육청,인천광역시서부교육지원청,37.58980222,126.6717483
인천인동초등학교,초등학교,2000-03-01,공립,본교,인천광역시 남동구 백범로248번길 38,인천광역시교육청,인천광역시동부교육지원청,37.46258155,126.7225981
삼남초등학교,초등학교,2020-09-01,공립,본교,울산광역시 울주군 삼남면 울산역2길 43,울산광역시교육청,울산광역시강남교육지원청,35.55589043,129.126551
온정중학교,중학교,1971-04-08,공립,본교,경상북도 울진군 온정면 온정학교길 61,경상북도교육청,경상북도울진교육지원청,36.72653526,129.3466575
경안여자중학교,중학교,1964-11-13,사립,본교,경상북도 안동시 금곡윗4길 47,경상북도교육청,경상북도안동교육지원청,36.57250005,128.7231447
대구체육고등학교,고등학교,2003-03-01,공립,본교,대구광역시 북구 칠곡중앙대로136길 29,대구광역시교육청,대구광역시서부교육지원청,35.95879744,128.5577173
성지중학교,중학교,2001-03-01,공립,본교,대구광역시 달서구 성서동로 361,대구광역시교육청,대구광역시남부교육지원청,35.85336693,128.5146753
포천중학교,중학교,1948-02-01,공립,본교,경기도 포천시 신북면 중앙로207번길 65,경기도교육청,경기도포천교육지원청,37.90694114,127.2025475
대중금속공업고등학교,고등학교,1978-04-25,사립,본교,대구광역시 북구 관음로 303-12,대구광역시교육청,대구광역시서부교육지원청,35.95563216,128.5529842
삼산초등학교,초등학교,1946-10-14,공립,본교,전라남도 해남군 삼산면 고산로 586,전라남도교육청,전라남도해남교육지원청,34.51550015,126.6071982
용연초등학교,초등학교,2004-03-01,공립,본교,울산광역시 남구 야음로26번길 7,울산광역시교육청,울산광역시강남교육지원청,35.52517244,129.32437
굴화초등학교,초등학교,2000-05-06,공립,본교,울산광역시 울주군 범서읍 굴화3길 30,울산광역시교육청,울산광역시강남교육지원청,35.55368016,129.2612674
태종대초등학교,초등학교,1983-03-01,공립,본교,부산광역시 영도구 태종로802번길 38,부산광역시교육청,부산광역시서부교육지원청,35.06585221,129.0791487
하남중학교,중학교,1993-02-20,공립,본교,부산광역시 사하구 하신번영로 206,부산광역시교육청,부산광역시서부교육지원청,35.09962347,128.9589257
사남초등학교,초등학교,1983-03-01,공립,본교,부산광역시 사하구 장평로 390,부산광역시교육청,부산광역시서부교육지원청,35.09606507,128.9830521
은하수초등학교,초등학교,2022-03-01,공립,본교,경상남도 진주시 진주역로73번길 7,경상남도교육청,경상남도진주교육지원청,35.15124455,128.1108115
함양제일고등학교,고등학교,1951-09-25,공립,본교,경상남도 함양군 함양읍 함양배움길 27,경상남도교육청,경상남도함양교육지원청,35.52525216,127.7323767
대구화동초등학교,초등학교,2005-03-01,공립,본교,대구광역시 달성군 화원읍 성암로 38,대구광역시교육청,대구광역시달성교육지원청,35.79954584,128.5096929
용신초등학교,초등학교,2000-05-06,공립,본교,경기도 남양주시 진건읍 사릉로 474,경기도교육청,경기도구리남양주교육지원청,37.66100507,127.1733424
남양주송촌초등학교,초등학교,1950-05-20,공립,본교,경기도 남양주시 조안면 북한강로499번길 30,경기도교육청,경기도구리남양주교육지원청,37.56770133,127.3182328
세종국제고등학교,고등학교,2013-03-01,공립,본교,세종특별자치시 달빛1로 251,세종특별자치시교육청,세종특별자치시교육청,36.52175116,127.2468867
삼숭중학교,중학교,2005-09-01,공립,본교,경기도 양주시 삼숭로38번길 136,경기도교육청,경기도동두천양주교육지원청,37.79780068,127.1086048
충훈고등학교,고등학교,2004-03-01,공립,본교,경기도 안양시 만안구 석수로 238,경기도교육청,경기도안양과천교육지원청,37.41081461,126.8931377
동패고등학교,고등학교,2011-03-01,공립,본교,경기도 파주시 교하로 350,경기도교육청,경기도파주교육지원청,37.71123986,126.7344265
일산은행초등학교,초등학교,2003-03-01,공립,본교,경기도 고양시 일산동구 은행마을로 70,경기도교육청,경기도고양교육지원청,37.66932912,126.8064844
남면초등학교양덕분교장,초등학교,1967-03-01,공립,분교,경기도 양주시 남면 은남로119번길 373,경기도교육청,경기도동두천양주교육지원청,37.90862973,126.9984139
덕계중학교,중학교,2001-03-02,공립,본교,경기도 양주시 평화로1416번길 66-13,경기도교육청,경기도동두천양주교육지원청,37.81620717,127.0500454
영남삼육고등학교,고등학교,1959-02-28,사립,본교,경상북도 경산시 남산면 서원길 58-31,경상북도교육청,경상북도경산교육지원청,35.78747508,128.8286797
경북여자상업고등학교,고등학교,1961-03-24,사립,본교,대구광역시 남구 명덕로38길 36,대구광역시교육청,대구광역시남부교육지원청,35.85494162,128.5887495
저동중학교,중학교,1994-11-01,공립,본교,경기도 고양시 일산동구 무궁화로 159,경기도교육청,경기도고양교육지원청,37.67073855,126.7779123
구영중학교,중학교,2008-03-01,공립,본교,울산광역시 울주군 범서읍 점촌3길 46,울산광역시교육청,울산광역시강남교육지원청,35.57265964,129.2364704
성포중학교,중학교,1989-12-22,공립,본교,경기도 안산시 상록구 월피로 73,경기도교육청,경기도안산교육지원청,37.33552772,126.8512845
일죽고등학교,고등학교,1968-01-27,공립,본교,경기도 안성시 서동대로 7446,경기도교육청,경기도안성교육지원청,37.0914178,127.4733715
서선초등학교,초등학교,1968-05-29,공립,본교,경상북도 안동시 풍산읍 서선길 51,경상북도교육청,경상북도안동교육지원청,36.59104214,128.6392902
장성중학교,중학교,1994-11-01,공립,본교,경기도 고양시 일산서구 대산로 254,경기도교육청,경기도고양교육지원청,37.68131955,126.7513728
봉화중학교,중학교,1948-08-06,공립,본교,경상북도 봉화군 봉화읍 내성로 138,경상북도교육청,경상북도봉화교육지원청,36.89603742,128.7399693
주엽고등학교,고등학교,1994-09-10,공립,본교,경기도 고양시 일산서구 킨텍스로 341,경기도교육청,경기도고양교육지원청,37.67610348,126.754359
다운고등학교,고등학교,2008-03-01,공립,본교,울산광역시 중구 다운로 180,울산광역시교육청,울산광역시강북교육지원청,35.56648882,129.2706096
문막초등학교,초등학교,1917-05-01,공립,본교,강원도 원주시 문막읍 건등로 28-11,강원도교육청,강원도원주교육지원청,37.31291674,127.8205042
배정고등학교,고등학교,1952-10-05,사립,본교,부산광역시 남구 장고개로85번길 14-16,부산광역시교육청,부산광역시남부교육지원청,35.13215205,129.0674134
문명중학교,중학교,2005-03-01,사립,본교,경상북도 경산시 경청로230길 30,경상북도교육청,경상북도경산교육지원청,35.80503215,128.7451394
부림중학교,중학교,1992-01-08,공립,본교,경기도 안양시 동안구 달안로 95,경기도교육청,경기도안양과천교육지원청,37.39806651,126.9532768
운정중학교,중학교,2020-03-01,공립,본교,경기도 파주시 와석순환로 35-33,경기도교육청,경기도파주교육지원청,37.707956,126.7556316
발산중학교,중학교,1993-01-11,공립,본교,경기도 고양시 일산서구 고봉로 99,경기도교육청,경기도고양교육지원청,37.66984321,126.7696268
교하고등학교,고등학교,2006-03-01,공립,본교,경기도 파주시 책향기로 180,경기도교육청,경기도파주교육지원청,37.7226655,126.7217207
월송초등학교,초등학교,1943-03-25,공립,본교,경상북도 울진군 평해읍 월송길 59,경상북도교육청,경상북도울진교육지원청,36.73603112,129.458906
소천중학교,중학교,1955-05-19,공립,본교,경상북도 봉화군 소천면 소천로 1237,경상북도교육청,경상북도봉화교육지원청,36.94233953,129.0006938
풍산중학교,중학교,1947-07-15,사립,본교,경상북도 안동시 풍산읍 풍산중앙길 39,경상북도교육청,경상북도안동교육지원청,36.58414665,128.5665358
일직중학교,중학교,1953-03-01,사립,본교,경상북도 안동시 일직면 하나들길 13,경상북도교육청,경상북도안동교육지원청,36.4706707,128.6638115
강내초등학교,초등학교,1928-05-01,공립,본교,충청북도 청주시 흥덕구 강내면 태성탑연로 117,충청북도교육청,충청북도청주교육지원청,36.59763719,127.3568278
낙민초등학교,초등학교,1993-04-01,공립,본교,경기도 고양시 일산동구 강석로 134,경기도교육청,경기도고양교육지원청,37.65392838,126.7801004
냉천초등학교,초등학교,1994-11-01,공립,본교,경기도 고양시 일산동구 산두로 99,경기도교육청,경기도고양교육지원청,37.66672298,126.7856589
고양백석초등학교,초등학교,1991-03-11,공립,본교,경기도 고양시 일산동구 강촌로 140,경기도교육청,경기도고양교육지원청,37.65213917,126.7890577
대구대산초등학교,초등학교,1983-01-26,공립,본교,대구광역시 북구 신천동로 900,대구광역시교육청,대구광역시서부교육지원청,35.89611556,128.5931912
덕산초등학교,초등학교,1940-04-24,공립,본교,경상남도 창원시 진해구 덕산로46번길 15,경상남도교육청,경상남도창원교육지원청,35.14587867,128.7052484
기성중학교,중학교,1969-10-14,공립,본교,경상북도 울진군 기성면 기성본길 58-5,경상북도교육청,경상북도울진교육지원청,36.79972762,129.457642
기성초등학교,초등학교,1926-10-01,공립,본교,경상북도 울진군 기성면 척산2길 24-5,경상북도교육청,경상북도울진교육지원청,36.79788853,129.4493165
신기초등학교,초등학교,1957-02-15,공립,본교,경상북도 문경시 신기4길 15,경상북도교육청,경상북도문경교육지원청,36.64004812,128.168488
순천효천고등학교,고등학교,1984-05-03,사립,본교,전라남도 순천시 녹색로 1360,전라남도교육청,전라남도순천교육지원청,34.90505459,127.4844121
대전금동초등학교,초등학교,1999-07-01,공립,본교,대전광역시 서구 관저로 45,대전광역시교육청,대전광역시서부교육지원청,36.29821685,127.3263759
운호고등학교,고등학교,1968-03-06,사립,본교,충청북도 청주시 서원구 무심서로 375,충청북도교육청,충청북도청주교육지원청,36.62505317,127.4851868
천상초등학교,초등학교,2005-03-01,공립,본교,울산광역시 울주군 범서읍 천상7길 28,울산광역시교육청,울산광역시강남교육지원청,35.56051496,129.2216404
광주송원중학교,중학교,1978-03-23,사립,본교,광주광역시 남구 송암로 73,광주광역시교육청,광주광역시서부교육지원청,35.10818451,126.8732664
인천국제고등학교,고등학교,2008-09-07,공립,본교,인천광역시 중구 영종대로277번길 74-40,인천광역시교육청,인천광역시남부교육지원청,37.48971398,126.5094118
청량초등학교,초등학교,1927-06-01,공립,본교,울산광역시 울주군 청량읍 덕정5길 14,울산광역시교육청,울산광역시강남교육지원청,35.48640328,129.2981532
경명여자고등학교,고등학교,1966-01-17,사립,본교,대구광역시 북구 칠성로17길 18,대구광역시교육청,대구광역시서부교육지원청,35.88072706,128.5984327
한빛초등학교,초등학교,2010-03-01,공립,본교,경기도 파주시 미래로408번길 77,경기도교육청,경기도파주교육지원청,37.71486343,126.7510296
대구파동초등학교,초등학교,1983-03-01,공립,본교,대구광역시 수성구 파동로51길 34,대구광역시교육청,대구광역시동부교육지원청,35.82401679,128.6074144
온정초등학교,초등학교,1929-02-16,공립,본교,경상북도 울진군 온정면 온정학교길 49,경상북도교육청,경상북도울진교육지원청,36.72552957,129.3461279
경남여자중학교,중학교,1927-04-23,공립,본교,부산광역시 동구 초량중로 142,부산광역시교육청,부산광역시남부교육지원청,35.12387731,129.042595
서울잠전초등학교,초등학교,1981-11-26,공립,본교,서울특별시 송파구 올림픽로12길 51,서울특별시교육청,서울특별시강동송파교육지원청,37.50733791,127.0838499
대구비슬초등학교,초등학교,2016-03-01,공립,본교,대구광역시 달성군 유가읍 테크노북로 144,대구광역시교육청,대구광역시달성교육지원청,35.69605801,128.4587333
포산중학교,중학교,1960-01-20,공립,본교,대구광역시 달성군 유가읍 테크노북로6길 10,대구광역시교육청,대구광역시달성교육지원청,35.69614113,128.4600355
매산초등학교,초등학교,2011-03-01,공립,본교,울산광역시 북구 매산로 53,울산광역시교육청,울산광역시강북교육지원청,35.64418712,129.3605747
대구학정초등학교,초등학교,2007-09-01,공립,본교,대구광역시 북구 학남로 32,대구광역시교육청,대구광역시서부교육지원청,35.94822595,128.5689765
와룡초등학교,초등학교,1933-08-31,공립,본교,경상북도 안동시 와룡면 문화마을길 11,경상북도교육청,경상북도안동교육지원청,36.6195593,128.7685479
서산중학교,중학교,1946-12-16,공립,본교,충청남도 서산시 덕지천로 90,충청남도교육청,충청남도서산교육지원청,36.76904553,126.4586303
임곡초등학교,초등학교,1923-09-27,공립,본교,광주광역시 광산구 하림길 26,광주광역시교육청,광주광역시서부교육지원청,35.22111206,126.7468257
봉선중학교,중학교,1983-03-05,공립,본교,광주광역시 남구 봉선중길 14,광주광역시교육청,광주광역시서부교육지원청,35.12901152,126.9121466
금구중학교,중학교,2001-03-05,공립,본교,광주광역시 광산구 목련로153번길 76,광주광역시교육청,광주광역시서부교육지원청,35.17553403,126.8154974
선암초등학교,초등학교,1962-11-01,공립,본교,부산광역시 부산진구 엄광로 412,부산광역시교육청,부산광역시남부교육지원청,35.14936809,129.0488761
양성초등학교,초등학교,1984-03-01,공립,본교,부산광역시 부산진구 양성로 34,부산광역시교육청,부산광역시남부교육지원청,35.17035507,129.0660942
논곡중학교,중학교,2006-03-01,공립,본교,경기도 시흥시 수인로2421번길 72,경기도교육청,경기도시흥교육지원청,37.38887267,126.8571918
신연초등학교,초등학교,1983-09-30,공립,본교,부산광역시 남구 유엔로25번길 66,부산광역시교육청,부산광역시남부교육지원청,35.1292856,129.0779704
한솔초등학교,초등학교,2012-09-01,공립,본교,세종특별자치시 누리로 32,세종특별자치시교육청,세종특별자치시교육청,36.47757948,127.2525246
서울우장초등학교,초등학교,1983-06-10,공립,본교,서울특별시 강서구 화곡로 263,서울특별시교육청,서울특별시강서양천교육지원청,37.54963819,126.8459842
성광중학교,중학교,1953-10-08,사립,본교,대구광역시 북구 검단로 150,대구광역시교육청,대구광역시서부교육지원청,35.9075717,128.6242288
운림중학교,중학교,2002-03-01,공립,본교,광주광역시 동구 의재로 137,광주광역시교육청,광주광역시동부교육지원청,35.13323178,126.9418973
화진중학교,중학교,1980-01-24,공립,본교,울산광역시 동구 양지1길 45,울산광역시교육청,울산광역시강북교육지원청,35.49681312,129.4220643
청담고등학교,고등학교,1975-12-01,사립,본교,경기도 평택시 팽성읍 팽성송화로 192,경기도교육청,경기도평택교육지원청,36.96221527,127.0624303
화정초등학교,초등학교,2013-03-04,공립,본교,부산광역시 북구 의성로 23,부산광역시교육청,부산광역시북부교육지원청,35.21820451,129.0099171
성천초등학교,초등학교,1992-05-06,공립,본교,부산광역시 남구 장고개로 64-41,부산광역시교육청,부산광역시남부교육지원청,35.13082801,129.0722321
덕원고등학교,고등학교,1979-11-21,사립,본교,대구광역시 수성구 욱수길 37,대구광역시교육청,대구광역시동부교육지원청,35.82572222,128.705953
신천중학교,중학교,2001-03-01,공립,본교,경기도 시흥시 포도원로 88-1,경기도교육청,경기도시흥교육지원청,37.43428739,126.782428
신천초등학교,초등학교,1999-03-01,공립,본교,경기도 시흥시 포도원로 88,경기도교육청,경기도시흥교육지원청,37.43514236,126.783407
연산중학교,중학교,1978-01-30,공립,본교,부산광역시 연제구 고분로56번길 39,부산광역시교육청,부산광역시동래교육지원청,35.1848634,129.0890237
서울개웅초등학교,초등학교,1998-07-31,공립,본교,서울특별시 구로구 개봉로11길 98,서울특별시교육청,서울특별시남부교육지원청,37.48857132,126.8499823
세명고등학교,고등학교,1984-10-08,사립,본교,경상북도 포항시 남구 새천년대로474번길 13,경상북도교육청,경상북도포항교육지원청,36.01659564,129.3495112
영락의료과학고등학교,고등학교,1959-04-09,사립,본교,서울특별시 관악구 청룡16길 25,서울특별시교육청,서울특별시동작관악교육지원청,37.47658804,126.9454164
서울가동초등학교,초등학교,1990-04-25,공립,본교,서울특별시 송파구 중대로20길 47,서울특별시교육청,서울특별시강동송파교육지원청,37.49741227,127.1300159
주례초등학교,초등학교,1975-03-01,공립,본교,부산광역시 부산진구 진사로61번길 28-7,부산광역시교육청,부산광역시남부교육지원청,35.14579457,129.0194516
운담초등학교,초등학교,1956-07-12,공립,본교,경기도 포천시 일동면 화동로 1239,경기도교육청,경기도포천교육지원청,37.9711934,127.3291214
원평중학교,중학교,2003-03-01,공립,본교,충청북도 청주시 서원구 1순환로1137번길 36,충청북도교육청,충청북도청주교육지원청,36.6080651,127.4938827
반곡중학교,중학교,2019-05-01,공립,본교,세종특별자치시 시청대로 480,세종특별자치시교육청,세종특별자치시교육청,36.50055054,127.3118768
화진초등학교,초등학교,1934-04-01,공립,본교,울산광역시 동구 방어진순환도로 543,울산광역시교육청,울산광역시강북교육지원청,35.49144778,129.4254884
휘문중학교,중학교,1906-05-01,사립,본교,서울특별시 강남구 역삼로 541,서울특별시교육청,서울특별시강남서초교육지원청,37.50528945,127.0619841
남강초등학교,초등학교,1983-03-01,공립,본교,경상남도 진주시 모덕로 99,경상남도교육청,경상남도진주교육지원청,35.18377511,128.1097162
중곡초등학교,초등학교,1999-05-01,공립,본교,경상남도 거제시 중곡로 27,경상남도교육청,경상남도거제교육지원청,34.89450811,128.6293222
태안여자고등학교,고등학교,1974-04-27,사립,본교,충청남도 태안군 태안읍 원이로 7-1,충청남도교육청,충청남도태안교육지원청,36.7592675,126.2892542
백양중학교,중학교,1995-12-01,공립,본교,경기도 고양시 덕양구 화신로 236,경기도교육청,경기도고양교육지원청,37.63133167,126.8359445
성사초등학교,초등학교,1987-03-01,공립,본교,경기도 고양시 덕양구 호국로834번길 89,경기도교육청,경기도고양교육지원청,37.65782169,126.8436524
춘양중학교,중학교,1951-10-27,공립,본교,경상북도 봉화군 춘양면 서원촌길 8-14,경상북도교육청,경상북도봉화교육지원청,36.94786297,128.914111
정발고등학교,고등학교,1996-11-03,공립,본교,경기도 고양시 일산동구 정발산로 185,경기도교육청,경기도고양교육지원청,37.66365025,126.7861372
고양국제고등학교,고등학교,2011-03-01,공립,본교,경기도 고양시 일산동구 위시티4로 112,경기도교육청,경기도고양교육지원청,37.68458737,126.8086453
세종과학예술영재학교,고등학교,2015-04-17,공립,본교,세종특별자치시 달빛1로 265,세종특별자치시교육청,세종특별자치시교육청,36.52289844,127.2491308
다전초등학교,초등학교,2008-03-01,공립,본교,울산광역시 중구 다운로 176,울산광역시교육청,울산광역시강북교육지원청,35.56772226,129.2682479
달천고등학교,고등학교,2009-03-01,공립,본교,울산광역시 북구 달천철장길 23,울산광역시교육청,울산광역시강북교육지원청,35.63192969,129.3288462
광주공업고등학교,고등학교,1946-10-21,공립,본교,광주광역시 북구 설죽로315번길 14,광주광역시교육청,광주광역시동부교육지원청,35.189132,126.8951358
금계초등학교,초등학교,1995-03-01,공립,본교,경기도 고양시 일산동구 강촌로 90,경기도교육청,경기도고양교육지원청,37.649601,126.7843119
울산강남고등학교,고등학교,2010-03-01,공립,본교,울산광역시 남구 팔등로 115,울산광역시교육청,울산광역시강남교육지원청,35.54699809,129.3187347
우신고등학교,고등학교,1988-10-02,사립,본교,울산광역시 남구 대학로1번길 29,울산광역시교육청,울산광역시강남교육지원청,35.53825621,129.2499623
우정초등학교,초등학교,1980-06-01,공립,본교,울산광역시 중구 평동길 40,울산광역시교육청,울산광역시강북교육지원청,35.55922535,129.3073432
성광고등학교,고등학교,1954-09-08,사립,본교,대구광역시 북구 검단로 150,대구광역시교육청,대구광역시서부교육지원청,35.9075717,128.6242288
산동초등학교,초등학교,1935-03-01,공립,본교,경상남도 밀양시 단장면 표충로 889-6,경상남도교육청,경상남도밀양교육지원청,35.52557833,128.9117722
서울신방학초등학교,초등학교,1986-04-24,공립,본교,서울특별시 도봉구 시루봉로 173,서울특별시교육청,서울특별시북부교육지원청,37.66668425,127.0289181
서울신상계초등학교,초등학교,1970-05-22,공립,본교,서울특별시 노원구 상계로 267,서울특별시교육청,서울특별시북부교육지원청,37.66751782,127.0758263
광릉초등학교,초등학교,1944-03-07,공립,본교,경기도 남양주시 진접읍 광릉내로82번길 29,경기도교육청,경기도구리남양주교육지원청,37.74592049,127.2067727
경주예일고등학교,고등학교,1978-11-08,사립,본교,경상북도 경주시 안강읍 화전길 62-8,경상북도교육청,경상북도경주교육지원청,35.9933896,129.2108268
문발초등학교,초등학교,2006-03-01,공립,본교,경기도 파주시 노을빛로 21,경기도교육청,경기도파주교육지원청,37.72616724,126.7069654
서울개봉초등학교,초등학교,1971-12-04,공립,본교,서울특별시 구로구 개봉로16길 30-11,서울특별시교육청,서울특별시남부교육지원청,37.48952491,126.857976
천곡중학교,중학교,2000-03-01,공립,본교,울산광역시 북구 고래로 38,울산광역시교육청,울산광역시강북교육지원청,35.63274613,129.3408015
아람초등학교,초등학교,2008-09-01,공립,본교,경기도 고양시 덕양구 서정마을로 36,경기도교육청,경기도고양교육지원청,37.61945664,126.8504123
인천삼목초등학교,초등학교,2004-03-01,공립,본교,인천광역시 중구 신도시북로 42,인천광역시교육청,인천광역시남부교육지원청,37.49866348,126.486412
화산초등학교,초등학교,1934-03-31,공립,본교,경기도 화성시 화산중앙로64번길 17,경기도교육청,경기도화성오산교육지원청,37.21142627,127.0135239
수원공업고등학교,고등학교,1970-06-23,사립,본교,경기도 수원시 팔달구 세지로 254,경기도교육청,경기도수원교육지원청,37.27423255,127.0245216
법전중앙초등학교,초등학교,1949-11-30,공립,본교,경상북도 봉화군 법전면 법전로 135,경상북도교육청,경상북도봉화교육지원청,36.91466157,128.8776519
봉성초등학교,초등학교,1932-11-05,공립,본교,경상북도 봉화군 봉성면 봉명로 550,경상북도교육청,경상북도봉화교육지원청,36.88557445,128.8148779
남양주신촌초등학교,초등학교,2005-05-06,공립,본교,경기도 남양주시 평내로 122,경기도교육청,경기도구리남양주교육지원청,37.64550428,127.2398805
행남초등학교,초등학교,1995-06-01,공립,본교,경기도 고양시 덕양구 소만로 22,경기도교육청,경기도고양교육지원청,37.61518264,126.8425493
행신고등학교,고등학교,1995-03-10,공립,본교,경기도 고양시 덕양구 소만로 36,경기도교육청,경기도고양교육지원청,37.61640532,126.8426241
간석여자중학교,중학교,1984-10-23,공립,본교,인천광역시 남동구 간석로25번길 13,인천광역시교육청,인천광역시동부교육지원청,37.46837559,126.710288
인천영선초등학교,초등학교,2005-09-01,공립,본교,인천광역시 부평구 충선로 293,인천광역시교육청,인천광역시북부교육지원청,37.51537396,126.7344356
한국문화영상고등학교,고등학교,1969-11-17,사립,본교,경기도 동두천시 평화로2452번길 32,경기도교육청,경기도동두천양주교육지원청,37.90605631,127.060131
홍성중학교,중학교,1940-09-03,공립,본교,충청남도 홍성군 홍성읍 충절로 994,충청남도교육청,충청남도홍성교육지원청,36.59745892,126.6741912
도수초등학교,초등학교,1934-12-05,공립,본교,경기도 광주시 퇴촌면 도수길 11,경기도교육청,경기도광주하남교육지원청,37.47187879,127.3182656
비산초등학교,초등학교,1981-06-05,공립,본교,경기도 안양시 동안구 운곡로 52,경기도교육청,경기도안양과천교육지원청,37.40526069,126.943703
평촌경영고등학교,고등학교,1994-02-28,공립,본교,경기도 안양시 동안구 학의로 186,경기도교육청,경기도안양과천교육지원청,37.40107292,126.9590273
고봉초등학교,초등학교,1994-11-01,공립,본교,경기도 고양시 일산동구 중산로 280,경기도교육청,경기도고양교육지원청,37.69613944,126.7826205
인천후정초등학교,초등학교,2003-10-02,공립,본교,인천광역시 부평구 영성서로 56,인천광역시교육청,인천광역시북부교육지원청,37.5231572,126.743587
솔개초등학교,초등학교,2002-06-10,공립,본교,경기도 용인시 수지구 상현로 79,경기도교육청,경기도용인교육지원청,37.30579885,127.0817295
지석초등학교,초등학교,2003-03-01,공립,본교,경기도 용인시 기흥구 어정로 62-25,경기도교육청,경기도용인교육지원청,37.27004892,127.1390138
덕정중학교,중학교,1954-07-07,공립,본교,경기도 양주시 화합로 1397,경기도교육청,경기도동두천양주교육지원청,37.84260316,127.0640053
덕현고등학교,고등학교,2011-05-06,공립,본교,경기도 양주시 고읍북로 36,경기도교육청,경기도동두천양주교육지원청,37.79823967,127.0846203
능곡초등학교,초등학교,1929-10-07,공립,본교,경기도 고양시 덕양구 토당로67번길 66,경기도교육청,경기도고양교육지원청,37.62445113,126.8159437
인창고등학교,고등학교,1996-06-07,공립,본교,경기도 구리시 왕숙천로 339,경기도교육청,경기도구리남양주교육지원청,37.60540901,127.1464712
안곡초등학교,초등학교,2003-11-01,공립,본교,경기도 고양시 일산동구 중산로 142,경기도교육청,경기도고양교육지원청,37.68475123,126.7818546
삼근초등학교,초등학교,1934-07-21,공립,본교,경상북도 울진군 금강송면 삼근2길 23,경상북도교육청,경상북도울진교육지원청,36.93557512,129.2461092
금릉초등학교,초등학교,2005-03-01,공립,본교,경기도 파주시 후곡로 56,경기도교육청,경기도파주교육지원청,37.75255753,126.7728093
금화초등학교,초등학교,2004-11-05,공립,본교,경기도 파주시 새꽃로 55,경기도교육청,경기도파주교육지원청,37.75504144,126.767654
장촌초등학교,초등학교,1994-11-01,공립,본교,경기도 고양시 일산서구 호수로856번길 43,경기도교육청,경기도고양교육지원청,37.67282742,126.7489605
학산초등학교,초등학교,1926-06-11,공립,본교,전라남도 영암군 학산면 금계로 193,전라남도교육청,전라남도영암교육지원청,34.72055944,126.5967904
인천상정중학교,중학교,2008-03-01,공립,본교,인천광역시 부평구 경원대로 1083,인천광역시교육청,인천광역시북부교육지원청,37.47903727,126.6941199
인천논곡초등학교,초등학교,1999-03-01,공립,본교,인천광역시 남동구 함박뫼로 429,인천광역시교육청,인천광역시동부교육지원청,37.41056023,126.709953
용원초등학교,초등학교,1940-05-04,공립,본교,경상남도 창원시 진해구 용원로78번길 11,경상남도교육청,경상남도창원교육지원청,35.09744075,128.8182285
진해여자중학교,중학교,1951-09-01,공립,본교,경상남도 창원시 진해구 여좌남로 25,경상남도교육청,경상남도창원교육지원청,35.15667015,128.6588444
북삼중학교,중학교,1991-09-01,공립,본교,경상북도 칠곡군 북삼읍 북삼로 29,경상북도교육청,경상북도칠곡교육지원청,36.06994201,128.342881
청천초등학교,초등학교,1930-10-16,공립,본교,전라남도 구례군 마산면 화엄사로 136,전라남도교육청,전라남도구례교육지원청,35.22136646,127.4875833
송산고등학교,고등학교,1961-04-08,사립,본교,경기도 화성시 송산면 송산포도로 102-21,경기도교육청,경기도화성오산교육지원청,37.2164646,126.7382371
고양고등학교,고등학교,1938-01-10,공립,본교,경기도 고양시 덕양구 삼송로 171,경기도교육청,경기도고양교육지원청,37.6542399,126.8908686
적서초등학교,초등학교,1949-05-10,공립,본교,경기도 파주시 적성면 적서초교길 3,경기도교육청,경기도파주교육지원청,37.95104368,126.8969827
장성초등학교,초등학교,1994-11-01,공립,본교,경기도 고양시 일산서구 일산로 738,경기도교육청,경기도고양교육지원청,37.67794916,126.7496619
보산초등학교,초등학교,1971-03-01,공립,본교,경기도 동두천시 중앙로 427,경기도교육청,경기도동두천양주교육지원청,37.91494324,127.0638418
지산초등학교,초등학교,1954-10-04,공립,본교,경기도 파주시 경의로 1274,경기도교육청,경기도파주교육지원청,37.73092345,126.7615175
조원초등학교,초등학교,1993-09-01,공립,본교,경기도 수원시 장안구 금당로 53,경기도교육청,경기도수원교육지원청,37.30321326,127.0172011
군내초등학교,초등학교,1911-04-01,공립,본교,경기도 파주시 군내면 통일촌길 226,경기도교육청,경기도파주교육지원청,37.90568684,126.7311336
무원초등학교,초등학교,1994-09-01,공립,본교,경기도 고양시 덕양구 무원로 47,경기도교육청,경기도고양교육지원청,37.6176977,126.8316582
충무중학교,중학교,1982-12-16,공립,본교,경상남도 통영시 평인일주로 65,경상남도교육청,경상남도통영교육지원청,34.84097741,128.3963218
창수초등학교,초등학교,1946-04-01,공립,본교,경기도 포천시 창수면 옥수로58번길 4,경기도교육청,경기도포천교육지원청,37.98985608,127.181701
봉화고등학교,고등학교,1958-04-15,공립,본교,경상북도 봉화군 봉화읍 내성로 138,경상북도교육청,경상북도봉화교육지원청,36.89603742,128.7399693
중산고등학교,고등학교,1996-01-13,공립,본교,경기도 고양시 일산동구 중산로 290,경기도교육청,경기도고양교육지원청,37.69694847,126.7825931
영산중학교,중학교,1952-09-28,사립,본교,전라남도 나주시 영강길 32,전라남도교육청,전라남도나주교육지원청,35.00894093,126.7139419
동두천여자중학교,중학교,1969-11-17,사립,본교,경기도 동두천시 평화로2452번길 31,경기도교육청,경기도동두천양주교육지원청,37.90667068,127.0608065
동보초등학교,초등학교,1963-12-30,공립,본교,경기도 동두천시 강변로640번길 31,경기도교육청,경기도동두천양주교육지원청,37.92457718,127.0517562
세원고등학교,고등학교,1990-01-10,사립,본교,경기도 고양시 일산동구 숲속마을로 202,경기도교육청,경기도고양교육지원청,37.67146934,126.8033476
범일중학교,중학교,1992-12-24,공립,본교,대구광역시 수성구 지범로41길 23,대구광역시교육청,대구광역시동부교육지원청,35.8211246,128.644716
도산초등학교,초등학교,1950-04-18,공립,본교,경상남도 산청군 신안면 신차로 3-3,경상남도교육청,경상남도산청교육지원청,35.3354132,127.9997368
장흥여자중학교,중학교,1966-03-07,공립,본교,전라남도 장흥군 장흥읍 못골길 1,전라남도교육청,전라남도장흥교육지원청,34.68260537,126.9120574
인천효성서초등학교,초등학교,1986-09-30,공립,본교,인천광역시 계양구 봉오대로 457,인천광역시교육청,인천광역시서부교육지원청,37.5279826,126.6986766
부일여자중학교,중학교,1984-04-10,공립,본교,인천광역시 부평구 동수로 8,인천광역시교육청,인천광역시북부교육지원청,37.48425295,126.7194725
약목고등학교,고등학교,1973-03-05,공립,본교,경상북도 칠곡군 약목면 무림1길 6-26,경상북도교육청,경상북도칠곡교육지원청,36.02715811,128.3720695
모당초등학교,초등학교,2008-03-01,공립,본교,경기도 고양시 일산동구 하늘마을로 144,경기도교육청,경기도고양교육지원청,37.67953059,126.7807721
수택초등학교,초등학교,2001-03-01,공립,본교,경기도 구리시 검배로136번길 41,경기도교육청,경기도구리남양주교육지원청,37.59193504,127.1525368
대부고등학교,고등학교,1976-06-16,공립,본교,경기도 안산시 단원구 대부중앙로 3,경기도교육청,경기도안산교육지원청,37.24775077,126.5790618
봉곡중학교,중학교,1995-03-04,공립,본교,경상남도 창원시 의창구 봉곡로23번길 6,경상남도교육청,경상남도창원교육지원청,35.2487636,128.6617998
해남중학교,중학교,1920-03-01,공립,본교,전라남도 해남군 해남읍 중앙1로 225,전라남도교육청,전라남도해남교육지원청,34.57110825,126.5945569
솔빛중학교,중학교,2007-09-01,공립,본교,경기도 화성시 동탄반석로 83,경기도교육청,경기도화성오산교육지원청,37.19618958,127.0722732
마정초등학교,초등학교,1942-03-31,공립,본교,경기도 파주시 문산읍 마정로124번길 13,경기도교육청,경기도파주교육지원청,37.892258,126.7600994
동양초등학교,초등학교,1935-05-10,공립,본교,경상북도 봉화군 봉성면 다덕로 523-14,경상북도교육청,경상북도봉화교육지원청,36.9133089,128.7914403
대구들안길초등학교,초등학교,2010-09-01,공립,본교,대구광역시 수성구 들안로16길 58,대구광역시교육청,대구광역시동부교육지원청,35.83889748,128.6184098
남양주월문초등학교,초등학교,1975-03-01,공립,본교,경기도 남양주시 와부읍 수레로 519,경기도교육청,경기도구리남양주교육지원청,37.60948839,127.2616036
내양초등학교,초등학교,1972-09-23,공립,본교,경기도 구리시 동구릉로 485,경기도교육청,경기도구리남양주교육지원청,37.64059471,127.1393169
담양남초등학교,초등학교,1912-03-31,공립,본교,전라남도 담양군 담양읍 지침5길 14,전라남도교육청,전라남도담양교육지원청,35.31815859,126.9865635
남면초등학교,초등학교,1921-08-20,공립,본교,경기도 양주시 남면 개나리18길 100,경기도교육청,경기도동두천양주교육지원청,37.89386597,126.9757578
백송초등학교,초등학교,2011-03-01,공립,본교,경기도 고양시 일산서구 하이파크3로 110,경기도교육청,경기도고양교육지원청,37.70180887,126.7535566
백신고등학교,고등학교,1994-02-28,공립,본교,경기도 고양시 일산동구 백석로 8,경기도교육청,경기도고양교육지원청,37.64248837,126.7819557
덕천초등학교,초등학교,1983-07-18,공립,본교,경기도 안양시 만안구 전파로 27,경기도교육청,경기도안양과천교육지원청,37.39206378,126.9359049
창원중앙여자고등학교,고등학교,1998-03-01,공립,본교,경상남도 창원시 성산구 단정로 121,경상남도교육청,경상남도창원교육지원청,35.21429866,128.6924259
만송초등학교,초등학교,2011-03-01,공립,본교,경기도 양주시 고읍로 117-32,경기도교육청,경기도동두천양주교육지원청,37.79758552,127.0851619
수원초등학교,초등학교,1946-12-12,공립,본교,제주특별자치도 제주시 한림읍 한림로 822,제주특별자치도교육청,제주특별자치도제주시교육지원청,33.42609303,126.2700998
파평초등학교,초등학교,1925-05-17,공립,본교,경기도 파주시 파평면 파평산로478번길 37,경기도교육청,경기도파주교육지원청,37.90360997,126.8380523
대구초등학교,초등학교,1906-12-21,공립,본교,대구광역시 중구 명륜로23길 80,대구광역시교육청,대구광역시동부교육지원청,35.86403787,128.5953715
